{
"type": "FeatureCollection",
"name": "E:\\00HOMEOFF\\00GAMA\\gamma-app-dev\\bd\\subestacoes2.geojson",
"crs": { "type": "name", "properties": { "name": "urn:ogc:def:crs:OGC:1.3:CRS84" } },
"features": [
{ "type": "Feature", "properties": { "Nome": "SE Abdon Batista", "Concession": "ETSE - ETSE - EMPRESA DE TRANSMISSÃO SERRANA S.A", "Ano_Opera": "2014", "Tensao": "525\/230", "longitude": "-51.07219306", "latitude": "-27.57180736", "CD_MUN": "", "grau_defeito": "0.48927807", "risco": "0.51072193" }, "geometry": { "type": "Point", "coordinates": [ -51.072193056999936, -27.57180736 ] } },
{ "type": "Feature", "properties": { "Nome": "SE Abunã", "Concession": "ELETRONORTE - Centrais Elétricas do Norte do Brasil S\/A", "Ano_Opera": "-", "Tensao": "230\/138", "longitude": "-65.16752247", "latitude": "-9.71103552", "CD_MUN": "", "grau_defeito": "0.34832478", "risco": "0.65167522" }, "geometry": { "type": "Point", "coordinates": [ -65.167522473999952, -9.711035516999971 ] } },
{ "type": "Feature", "properties": { "Nome": "SE Açailândia", "Concession": "EATE - Empresa Amazonense de Transmissão de Energia S.A.", "Ano_Opera": "2003", "Tensao": "500", "longitude": "-47.40343700", "latitude": "-4.91898605", "CD_MUN": "", "grau_defeito": "0.52596563", "risco": "0.47403437" }, "geometry": { "type": "Point", "coordinates": [ -47.403437003999954, -4.918986052999969 ] } },
{ "type": "Feature", "properties": { "Nome": "SE Acaraú II", "Concession": "CHESF - CHESF - Companhia Hidro Elétrica do São Francisco", "Ano_Opera": "2010", "Tensao": "230\/69", "longitude": "-40.11407421", "latitude": "-2.92766239", "CD_MUN": "", "grau_defeito": "0.59885926", "risco": "0.40114074" }, "geometry": { "type": "Point", "coordinates": [ -40.11407421499996, -2.927662385999952 ] } },
{ "type": "Feature", "properties": { "Nome": "SE Açu II", "Concession": "CHESF - CHESF - Companhia Hidro Elétrica do São Francisco", "Ano_Opera": "-", "Tensao": "230\/138\/69", "longitude": "-36.90839717", "latitude": "-5.59277794", "CD_MUN": "", "grau_defeito": "0.63091603", "risco": "0.36908397" }, "geometry": { "type": "Point", "coordinates": [ -36.908397167999965, -5.592777938999973 ] } },
{ "type": "Feature", "properties": { "Nome": "SE Açu III", "Concession": "ATEXVII - ATE XVII TRANSMISSORA DE ENERGIA SA", "Ano_Opera": "2017", "Tensao": "500\/230", "longitude": "-37.02968156", "latitude": "-5.57882845", "CD_MUN": "", "grau_defeito": "0.62970318", "risco": "0.37029682" }, "geometry": { "type": "Point", "coordinates": [ -37.029681561999951, -5.57882845499995 ] } },
{ "type": "Feature", "properties": { "Nome": "SE Adrianópolis", "Concession": "FURNAS - Furnas Centrais Elétricas S.A.", "Ano_Opera": "1970", "Tensao": "500\/345\/138", "longitude": "-43.47633645", "latitude": "-22.66579527", "CD_MUN": "", "grau_defeito": "0.56523664", "risco": "0.43476336" }, "geometry": { "type": "Point", "coordinates": [ -43.476336451999941, -22.665795267999954 ] } },
{ "type": "Feature", "properties": { "Nome": "SE Água Azul", "Concession": "AGUA AZUL SPE - SUBESTACAO AGUA AZUL SPE S.A.", "Ano_Opera": "2019", "Tensao": "440\/138", "longitude": "-46.40137444", "latitude": "-23.37504985", "CD_MUN": "", "grau_defeito": "0.53598626", "risco": "0.46401374" }, "geometry": { "type": "Point", "coordinates": [ -46.401374438999937, -23.375049854999929 ] } },
{ "type": "Feature", "properties": { "Nome": "SE Água Vermelha", "Concession": "AES TIETÊ - AES Tietê S.A.", "Ano_Opera": "1978", "Tensao": "500\/440\/138", "longitude": "-50.34887700", "latitude": "-19.86090100", "CD_MUN": "", "grau_defeito": "0.49651123", "risco": "0.50348877" }, "geometry": { "type": "Point", "coordinates": [ -50.348877, -19.860900998999966 ] } },
{ "type": "Feature", "properties": { "Nome": "SE Águas Lindas", "Concession": "CELG - GT - CELG GERAÇÃO E TRANSMISSÃO S\/A", "Ano_Opera": "1998", "Tensao": "230\/69", "longitude": "-48.27570866", "latitude": "-15.76753517", "CD_MUN": "", "grau_defeito": "0.51724291", "risco": "0.48275709" }, "geometry": { "type": "Point", "coordinates": [ -48.275708657999985, -15.767535169999974 ] } },
{ "type": "Feature", "properties": { "Nome": "SE Alegrete 2", "Concession": "CEEE GT - Companhia Estadual de Geração e Transmissão de Energia Elétrica", "Ano_Opera": "-", "Tensao": "230\/69", "longitude": "-55.72481046", "latitude": "-29.77749996", "CD_MUN": "", "grau_defeito": "0.4427519", "risco": "0.5572481" }, "geometry": { "type": "Point", "coordinates": [ -55.724810459999958, -29.777499961999979 ] } },
{ "type": "Feature", "properties": { "Nome": "SE Altamira", "Concession": "ELETRONORTE - Centrais Elétricas do Norte do Brasil S\/A", "Ano_Opera": "-", "Tensao": "230\/69", "longitude": "-52.17962128", "latitude": "-3.13688171", "CD_MUN": "", "grau_defeito": "0.47820379", "risco": "0.52179621" }, "geometry": { "type": "Point", "coordinates": [ -52.17962128399995, -3.136881709999955 ] } },
{ "type": "Feature", "properties": { "Nome": "SE Anastácio", "Concession": "ELETROSUL - ELETROSUL Centrais Elétricas S.A.", "Ano_Opera": "-", "Tensao": "230\/138", "longitude": "-55.84166709", "latitude": "-20.56760084", "CD_MUN": "", "grau_defeito": "0.44158333", "risco": "0.55841667" }, "geometry": { "type": "Point", "coordinates": [ -55.841667092999955, -20.567600837999976 ] } },
{ "type": "Feature", "properties": { "Nome": "SE Andirá Leste", "Concession": "COPEL-GT - COPEL GERAÇÃO E TRANSMISSÃO S.A", "Ano_Opera": "2019", "Tensao": "230\/138", "longitude": "-50.19299229", "latitude": "-23.07730931", "CD_MUN": "", "grau_defeito": "0.49807008", "risco": "0.50192992" }, "geometry": { "type": "Point", "coordinates": [ -50.19299228899996, -23.07730930799994 ] } },
{ "type": "Feature", "properties": { "Nome": "SE Angelim", "Concession": "CHESF - CHESF - Companhia Hidro Elétrica do São Francisco", "Ano_Opera": "-", "Tensao": "230\/69", "longitude": "-36.29460629", "latitude": "-8.89344329", "CD_MUN": "", "grau_defeito": "0.63705394", "risco": "0.36294606" }, "geometry": { "type": "Point", "coordinates": [ -36.29460629099998, -8.893443286999968 ] } },
{ "type": "Feature", "properties": { "Nome": "SE Angra dos Reis", "Concession": "FURNAS - Furnas Centrais Elétricas S.A.", "Ano_Opera": "-", "Tensao": "500\/138", "longitude": "-44.45594721", "latitude": "-23.00690292", "CD_MUN": "", "grau_defeito": "0.55544053", "risco": "0.44455947" }, "geometry": { "type": "Point", "coordinates": [ -44.455947207999941, -23.00690291899997 ] } },
{ "type": "Feature", "properties": { "Nome": "SE Anhanguera", "Concession": "CTEEP - Companhia de Transmissão de Energia Elétrica Paulista", "Ano_Opera": "-", "Tensao": "345\/230\/88", "longitude": "-46.76829923", "latitude": "-23.49316050", "CD_MUN": "", "grau_defeito": "0.53231701", "risco": "0.46768299" }, "geometry": { "type": "Point", "coordinates": [ -46.768299229999968, -23.493160498999941 ] } },
{ "type": "Feature", "properties": { "Nome": "SE Aparecida", "Concession": "CTEEP - Companhia de Transmissão de Energia Elétrica Paulista", "Ano_Opera": "-", "Tensao": "230\/88", "longitude": "-45.25501330", "latitude": "-22.86910151", "CD_MUN": "", "grau_defeito": "0.54744987", "risco": "0.45255013" }, "geometry": { "type": "Point", "coordinates": [ -45.255013301999952, -22.86910151099994 ] } },
{ "type": "Feature", "properties": { "Nome": "SE Apucarana", "Concession": "COPEL-GT - COPEL GERAÇÃO E TRANSMISSÃO S.A", "Ano_Opera": "-", "Tensao": "230\/138\/34,5", "longitude": "-51.44679836", "latitude": "-23.53451958", "CD_MUN": "", "grau_defeito": "0.48553202", "risco": "0.51446798" }, "geometry": { "type": "Point", "coordinates": [ -51.446798357999967, -23.53451957599998 ] } },
{ "type": "Feature", "properties": { "Nome": "SE Aracati II", "Concession": "BONS VENTOS - BONS VENTOS GERADORA DE ENERGIA S.A.", "Ano_Opera": "2010", "Tensao": "230\/34,5", "longitude": "-37.76327093", "latitude": "-4.48815009", "CD_MUN": "", "grau_defeito": "0.62236729", "risco": "0.37763271" }, "geometry": { "type": "Point", "coordinates": [ -37.763270926999951, -4.488150091999955 ] } },
{ "type": "Feature", "properties": { "Nome": "SE Araçuaí 2", "Concession": "TRANSIRAPÉ - COMPANHIA TRANSIRAPÉ DE TRANSMISSÃO", "Ano_Opera": "2007", "Tensao": "230\/138", "longitude": "-42.02005542", "latitude": "-16.83429287", "CD_MUN": "", "grau_defeito": "0.57979945", "risco": "0.42020055" }, "geometry": { "type": "Point", "coordinates": [ -42.020055419999949, -16.834292871999935 ] } },
{ "type": "Feature", "properties": { "Nome": "SE Arapiraca III", "Concession": "CHESF - CHESF - Companhia Hidro Elétrica do São Francisco", "Ano_Opera": "2013", "Tensao": "230\/69", "longitude": "-36.64958945", "latitude": "-9.78688035", "CD_MUN": "", "grau_defeito": "0.63350411", "risco": "0.36649589" }, "geometry": { "type": "Point", "coordinates": [ -36.649589446999983, -9.786880349999933 ] } },
{ "type": "Feature", "properties": { "Nome": "SE Araraquara CTP", "Concession": "CTEEP - Companhia de Transmissão de Energia Elétrica Paulista", "Ano_Opera": "-", "Tensao": "440\/138", "longitude": "-48.26392000", "latitude": "-21.78268100", "CD_MUN": "", "grau_defeito": "0.5173608", "risco": "0.4826392" }, "geometry": { "type": "Point", "coordinates": [ -48.26392, -21.782680998999979 ] } },
{ "type": "Feature", "properties": { "Nome": "SE Araraquara FUR", "Concession": "FURNAS - Furnas Centrais Elétricas S.A.", "Ano_Opera": "1976", "Tensao": "500", "longitude": "-48.25342601", "latitude": "-21.77400103", "CD_MUN": "", "grau_defeito": "0.51746574", "risco": "0.48253426" }, "geometry": { "type": "Point", "coordinates": [ -48.253426014999945, -21.774001028999976 ] } },
{ "type": "Feature", "properties": { "Nome": "SE Araraquara 2", "Concession": "ARARAQUARA - ARARAQUARA TRANSMISSORA DE ENERGIA S.A", "Ano_Opera": "2012", "Tensao": "500\/440", "longitude": "-48.34966944", "latitude": "-21.83356413", "CD_MUN": "", "grau_defeito": "0.51650331", "risco": "0.48349669" }, "geometry": { "type": "Point", "coordinates": [ -48.349669440999946, -21.833564133999971 ] } },
{ "type": "Feature", "properties": { "Nome": "SE Araras", "Concession": "IEP - INTERLIGAÇÃO ELÉTRICA PINHEIROS S.A", "Ano_Opera": "2010", "Tensao": "440\/138", "longitude": "-47.46188700", "latitude": "-22.39574200", "CD_MUN": "", "grau_defeito": "0.52538113", "risco": "0.47461887" }, "geometry": { "type": "Point", "coordinates": [ -47.461887, -22.395741998999938 ] } },
{ "type": "Feature", "properties": { "Nome": "SE Arcoverde II", "Concession": "ARCOVERDE - ARCOVERDE TRANSMISSAO DE ENERGIA S.A.", "Ano_Opera": "2019", "Tensao": "230\/69", "longitude": "-37.00373269", "latitude": "-8.49920029", "CD_MUN": "", "grau_defeito": "0.62996267", "risco": "0.37003733" }, "geometry": { "type": "Point", "coordinates": [ -37.00373269499994, -8.499200293999934 ] } },
{ "type": "Feature", "properties": { "Nome": "SE Areia", "Concession": "ELETROSUL - ELETROSUL Centrais Elétricas S.A.", "Ano_Opera": "1997", "Tensao": "525\/230\/138", "longitude": "-51.60034400", "latitude": "-25.96918100", "CD_MUN": "", "grau_defeito": "0.48399656", "risco": "0.51600344" }, "geometry": { "type": "Point", "coordinates": [ -51.600344, -25.969180998999946 ] } },
{ "type": "Feature", "properties": { "Nome": "SE Ariquemes", "Concession": "ELETRONORTE - Centrais Elétricas do Norte do Brasil S\/A", "Ano_Opera": "-", "Tensao": "230\/69", "longitude": "-63.01232074", "latitude": "-9.92635945", "CD_MUN": "", "grau_defeito": "0.36987679", "risco": "0.63012321" }, "geometry": { "type": "Point", "coordinates": [ -63.01232074, -9.926359451999929 ] } },
{ "type": "Feature", "properties": { "Nome": "SE Assis", "Concession": "CTEEP - Companhia de Transmissão de Energia Elétrica Paulista", "Ano_Opera": "-", "Tensao": "500\/440\/230", "longitude": "-50.35067744", "latitude": "-22.66873485", "CD_MUN": "", "grau_defeito": "0.49649323", "risco": "0.50350677" }, "geometry": { "type": "Point", "coordinates": [ -50.35067744, -22.66873484599995 ] } },
{ "type": "Feature", "properties": { "Nome": "SE Atibaia II", "Concession": "IEP - INTERLIGAÇÃO ELÉTRICA PINHEIROS S.A", "Ano_Opera": "2013", "Tensao": "345\/138", "longitude": "-46.55733825", "latitude": "-23.04707409", "CD_MUN": "", "grau_defeito": "0.53442662", "risco": "0.46557338" }, "geometry": { "type": "Point", "coordinates": [ -46.557338253999944, -23.047074089999967 ] } },
{ "type": "Feature", "properties": { "Nome": "SE Atlântida 2", "Concession": "ELETROSUL - ELETROSUL Centrais Elétricas S.A.", "Ano_Opera": "2007", "Tensao": "230\/69", "longitude": "-50.05462646", "latitude": "-29.78240967", "CD_MUN": "", "grau_defeito": "0.49945374", "risco": "0.50054626" }, "geometry": { "type": "Point", "coordinates": [ -50.054626464999956, -29.782409666999968 ] } },
{ "type": "Feature", "properties": { "Nome": "SE Avaré Nova", "Concession": "CTEEP - Companhia de Transmissão de Energia Elétrica Paulista", "Ano_Opera": "2003", "Tensao": "230", "longitude": "-48.93290300", "latitude": "-23.06260683", "CD_MUN": "", "grau_defeito": "0.51067097", "risco": "0.48932903" }, "geometry": { "type": "Point", "coordinates": [ -48.932902995999939, -23.062606833999951 ] } },
{ "type": "Feature", "properties": { "Nome": "SE Barão de Cocais 3", "Concession": "CEMIG - Companhia Energética de Minas Gerais", "Ano_Opera": "2005", "Tensao": "230", "longitude": "-43.44160300", "latitude": "-19.85303700", "CD_MUN": "", "grau_defeito": "0.56558397", "risco": "0.43441603" }, "geometry": { "type": "Point", "coordinates": [ -43.441603, -19.853036998999983 ] } },
{ "type": "Feature", "properties": { "Nome": "SE Bagé 2", "Concession": "CEEE GT - Companhia Estadual de Geração e Transmissão de Energia Elétrica", "Ano_Opera": "-", "Tensao": "230\/69\/23\/13,8", "longitude": "-54.07140261", "latitude": "-31.28880287", "CD_MUN": "", "grau_defeito": "0.45928597", "risco": "0.54071403" }, "geometry": { "type": "Point", "coordinates": [ -54.071402605999936, -31.288802866999958 ] } },
{ "type": "Feature", "properties": { "Nome": "SE Baixada Santista", "Concession": "CTEEP - Companhia de Transmissão de Energia Elétrica Paulista", "Ano_Opera": "-", "Tensao": "345\/230\/138\/88", "longitude": "-46.42041000", "latitude": "-23.85961900", "CD_MUN": "", "grau_defeito": "0.5357959", "risco": "0.4642041" }, "geometry": { "type": "Point", "coordinates": [ -46.42041, -23.859618998999963 ] } },
{ "type": "Feature", "properties": { "Nome": "SE UHE Balbina", "Concession": "-", "Ano_Opera": "1989", "Tensao": "230\/13,8", "longitude": "-59.47998851", "latitude": "-1.91960684", "CD_MUN": "", "grau_defeito": "0.40520011", "risco": "0.59479989" }, "geometry": { "type": "Point", "coordinates": [ -59.479988506999973, -1.919606839999972 ] } },
{ "type": "Feature", "properties": { "Nome": "SE Balsas", "Concession": "ELETRONORTE - Centrais Elétricas do Norte do Brasil S\/A", "Ano_Opera": "2011", "Tensao": "230\/69", "longitude": "-46.01802629", "latitude": "-7.55938293", "CD_MUN": "", "grau_defeito": "0.53981974", "risco": "0.46018026" }, "geometry": { "type": "Point", "coordinates": [ -46.018026285999952, -7.559382926999945 ] } },
{ "type": "Feature", "properties": { "Nome": "SE Banabuiú", "Concession": "CHESF - CHESF - Companhia Hidro Elétrica do São Francisco", "Ano_Opera": "-", "Tensao": "230\/69", "longitude": "-38.91225214", "latitude": "-5.30520321", "CD_MUN": "", "grau_defeito": "0.61087748", "risco": "0.38912252" }, "geometry": { "type": "Point", "coordinates": [ -38.912252137999985, -5.30520321299997 ] } },
{ "type": "Feature", "properties": { "Nome": "SE Bandeirantes", "Concession": "CTEEP - Companhia de Transmissão de Energia Elétrica Paulista", "Ano_Opera": "-", "Tensao": "345\/88\/34,5", "longitude": "-46.69224337", "latitude": "-23.59887274", "CD_MUN": "", "grau_defeito": "0.53307757", "risco": "0.46692243" }, "geometry": { "type": "Point", "coordinates": [ -46.692243368999982, -23.59887274099998 ] } },
{ "type": "Feature", "properties": { "Nome": "SE Bandeirantes", "Concession": "FURNAS - Furnas Centrais Elétricas S.A.", "Ano_Opera": "1972", "Tensao": "345\/230", "longitude": "-49.23377755", "latitude": "-16.79311347", "CD_MUN": "", "grau_defeito": "0.50766222", "risco": "0.49233778" }, "geometry": { "type": "Point", "coordinates": [ -49.233777550999946, -16.793113474999927 ] } },
{ "type": "Feature", "properties": { "Nome": "SE Barbacena 2", "Concession": "CEMIG - Companhia Energética de Minas Gerais", "Ano_Opera": "1963", "Tensao": "345\/138\/13,8", "longitude": "-43.75477339", "latitude": "-21.18575055", "CD_MUN": "", "grau_defeito": "0.56245227", "risco": "0.43754773" }, "geometry": { "type": "Point", "coordinates": [ -43.754773394999972, -21.185750551999945 ] } },
{ "type": "Feature", "properties": { "Nome": "SE Barra do Peixe", "Concession": "ELETRONORTE - Centrais Elétricas do Norte do Brasil S\/A", "Ano_Opera": "-", "Tensao": "230\/138", "longitude": "-52.61653602", "latitude": "-16.49557387", "CD_MUN": "", "grau_defeito": "0.47383464", "risco": "0.52616536" }, "geometry": { "type": "Point", "coordinates": [ -52.616536019999955, -16.495573874999934 ] } },
{ "type": "Feature", "properties": { "Nome": "SE Barra Grande", "Concession": "ETAU - EMPRESA DE TRANSMISSÃO DO ALTO DO URUGUAI S\/A", "Ano_Opera": "2005", "Tensao": "230", "longitude": "-51.18445501", "latitude": "-27.76904745", "CD_MUN": "", "grau_defeito": "0.48815545", "risco": "0.51184455" }, "geometry": { "type": "Point", "coordinates": [ -51.184455012999933, -27.769047446999934 ] } },
{ "type": "Feature", "properties": { "Nome": "SE Barreiras", "Concession": "CHESF - CHESF - Companhia Hidro Elétrica do São Francisco", "Ano_Opera": "-", "Tensao": "230\/138\/69", "longitude": "-44.94659400", "latitude": "-12.13439900", "CD_MUN": "", "grau_defeito": "0.55053406", "risco": "0.44946594" }, "geometry": { "type": "Point", "coordinates": [ -44.946594, -12.134399 ] } },
{ "type": "Feature", "properties": { "Nome": "SE Barreiras II", "Concession": "ATEXVI - ATE XVI TRANSMISSORA DE ENERGIA SA", "Ano_Opera": "2017", "Tensao": "500\/230", "longitude": "-44.81061050", "latitude": "-12.17187984", "CD_MUN": "", "grau_defeito": "0.55189389", "risco": "0.44810611" }, "geometry": { "type": "Point", "coordinates": [ -44.81061049799996, -12.171879840999964 ] } },
{ "type": "Feature", "properties": { "Nome": "SE Barreiro 1", "Concession": "CEMIG - Companhia Energética de Minas Gerais", "Ano_Opera": "1964", "Tensao": "345\/138", "longitude": "-43.99137684", "latitude": "-20.00027070", "CD_MUN": "", "grau_defeito": "0.56008623", "risco": "0.43991377" }, "geometry": { "type": "Point", "coordinates": [ -43.991376836999962, -20.000270703999945 ] } },
{ "type": "Feature", "properties": { "Nome": "SE Barro Alto", "Concession": "FURNAS - Furnas Centrais Elétricas S.A.", "Ano_Opera": "1982", "Tensao": "230\/69", "longitude": "-48.92546506", "latitude": "-15.11940065", "CD_MUN": "", "grau_defeito": "0.51074535", "risco": "0.48925465" }, "geometry": { "type": "Point", "coordinates": [ -48.92546505599995, -15.119400651999968 ] } },
{ "type": "Feature", "properties": { "Nome": "SE Barro Branco", "Concession": "FURNAS - Furnas Centrais Elétricas S.A.", "Ano_Opera": "2013", "Tensao": "345", "longitude": "-43.31799316", "latitude": "-20.43188476", "CD_MUN": "", "grau_defeito": "0.56682007", "risco": "0.43317993" }, "geometry": { "type": "Point", "coordinates": [ -43.317993163999972, -20.43188476499995 ] } },
{ "type": "Feature", "properties": { "Nome": "SE Bateias", "Concession": "COPEL-GT - COPEL GERAÇÃO E TRANSMISSÃO S.A", "Ano_Opera": "1999", "Tensao": "525\/230\/138", "longitude": "-49.53264158", "latitude": "-25.41165169", "CD_MUN": "", "grau_defeito": "0.50467358", "risco": "0.49532642" }, "geometry": { "type": "Point", "coordinates": [ -49.532641578999971, -25.411651685999971 ] } },
{ "type": "Feature", "properties": { "Nome": "SE Bauru", "Concession": "CTEEP - Companhia de Transmissão de Energia Elétrica Paulista", "Ano_Opera": "-", "Tensao": "440\/138", "longitude": "-49.09600800", "latitude": "-22.28277600", "CD_MUN": "", "grau_defeito": "0.50903992", "risco": "0.49096008" }, "geometry": { "type": "Point", "coordinates": [ -49.096008, -22.282775998999966 ] } },
{ "type": "Feature", "properties": { "Nome": "SE Biguaçu", "Concession": "ELETROSUL - ELETROSUL Centrais Elétricas S.A.", "Ano_Opera": "2008", "Tensao": "525\/230\/138", "longitude": "-48.73339100", "latitude": "-27.48502500", "CD_MUN": "", "grau_defeito": "0.51266609", "risco": "0.48733391" }, "geometry": { "type": "Point", "coordinates": [ -48.733391, -27.485024998999961 ] } },
{ "type": "Feature", "properties": { "Nome": "SE Blumenau", "Concession": "ELETROSUL - ELETROSUL Centrais Elétricas S.A.", "Ano_Opera": "-", "Tensao": "525\/230\/138", "longitude": "-49.07921400", "latitude": "-26.78230200", "CD_MUN": "", "grau_defeito": "0.50920786", "risco": "0.49079214" }, "geometry": { "type": "Point", "coordinates": [ -49.079214, -26.782301998999969 ] } },
{ "type": "Feature", "properties": { "Nome": "SE Boa Esperança", "Concession": "CHESF - CHESF - Companhia Hidro Elétrica do São Francisco", "Ano_Opera": "-", "Tensao": "500\/230", "longitude": "-43.56395840", "latitude": "-6.72389015", "CD_MUN": "", "grau_defeito": "0.56436042", "risco": "0.43563958" }, "geometry": { "type": "Point", "coordinates": [ -43.563958403999948, -6.723890152999957 ] } },
{ "type": "Feature", "properties": { "Nome": "SE Boa Vista", "Concession": "ELETRONORTE - Centrais Elétricas do Norte do Brasil S\/A", "Ano_Opera": "-", "Tensao": "230\/69\/13,8", "longitude": "-60.71724110", "latitude": "2.94206750", "CD_MUN": "", "grau_defeito": "0.39282759", "risco": "0.60717241" }, "geometry": { "type": "Point", "coordinates": [ -60.717241102999935, 2.94206749600005 ] } },
{ "type": "Feature", "properties": { "Nome": "SE Bom Despacho 3", "Concession": "CEMIG - Companhia Energética de Minas Gerais", "Ano_Opera": "2004", "Tensao": "500", "longitude": "-45.31068715", "latitude": "-19.79276048", "CD_MUN": "", "grau_defeito": "0.54689313", "risco": "0.45310687" }, "geometry": { "type": "Point", "coordinates": [ -45.310687154999982, -19.792760484999974 ] } },
{ "type": "Feature", "properties": { "Nome": "SE Bom Jardim", "Concession": "CTEEP - Companhia de Transmissão de Energia Elétrica Paulista", "Ano_Opera": "-", "Tensao": "440\/138\/88\/13,8", "longitude": "-46.99019091", "latitude": "-23.15177538", "CD_MUN": "", "grau_defeito": "0.53009809", "risco": "0.46990191" }, "geometry": { "type": "Point", "coordinates": [ -46.990190910999956, -23.151775383999961 ] } },
{ "type": "Feature", "properties": { "Nome": "SE Bom Jesus da Lapa II", "Concession": "TAESA - TRANSMISSORA ALIANÇA DE ENERGIA ELÉTRICA S A", "Ano_Opera": "2003", "Tensao": "500\/230", "longitude": "-43.34340604", "latitude": "-13.30980403", "CD_MUN": "", "grau_defeito": "0.56656594", "risco": "0.43343406" }, "geometry": { "type": "Point", "coordinates": [ -43.343406038999944, -13.309804027999974 ] } },
{ "type": "Feature", "properties": { "Nome": "SE Bom Jesus II", "Concession": "SPEDRO - SAO PEDRO TRANSMISSORA DE ENERGIA S\/A", "Ano_Opera": "2017", "Tensao": "230\/69", "longitude": "-44.31174264", "latitude": "-9.10357030", "CD_MUN": "", "grau_defeito": "0.55688257", "risco": "0.44311743" }, "geometry": { "type": "Point", "coordinates": [ -44.311742642999945, -9.103570300999934 ] } },
{ "type": "Feature", "properties": { "Nome": "SE Bom Nome", "Concession": "CHESF - CHESF - Companhia Hidro Elétrica do São Francisco", "Ano_Opera": "-", "Tensao": "230\/138\/69", "longitude": "-38.62754114", "latitude": "-7.99726400", "CD_MUN": "", "grau_defeito": "0.61372459", "risco": "0.38627541" }, "geometry": { "type": "Point", "coordinates": [ -38.62754113799997, -7.997263997999937 ] } },
{ "type": "Feature", "properties": { "Nome": "SE Bongi", "Concession": "CHESF - CHESF - Companhia Hidro Elétrica do São Francisco", "Ano_Opera": "-", "Tensao": "230\/69\/13,8", "longitude": "-34.92812250", "latitude": "-8.06349474", "CD_MUN": "", "grau_defeito": "0.65071877", "risco": "0.34928123" }, "geometry": { "type": "Point", "coordinates": [ -34.928122504999976, -8.063494741999932 ] } },
{ "type": "Feature", "properties": { "Nome": "SE Botucatu", "Concession": "CTEEP - Companhia de Transmissão de Energia Elétrica Paulista", "Ano_Opera": "-", "Tensao": "230\/138", "longitude": "-48.43762200", "latitude": "-22.95050000", "CD_MUN": "", "grau_defeito": "0.51562378", "risco": "0.48437622" }, "geometry": { "type": "Point", "coordinates": [ -48.437622, -22.950499998999931 ] } },
{ "type": "Feature", "properties": { "Nome": "SE Brasília Geral", "Concession": "FURNAS - Furnas Centrais Elétricas S.A.", "Ano_Opera": "1960", "Tensao": "230\/34,5", "longitude": "-47.95155162", "latitude": "-15.81254332", "CD_MUN": "", "grau_defeito": "0.52048448", "risco": "0.47951552" }, "geometry": { "type": "Point", "coordinates": [ -47.951551615999961, -15.812543317999939 ] } },
{ "type": "Feature", "properties": { "Nome": "SE Brasília Leste", "Concession": "VSBTE - VALE DO SAO BARTOLOMEU TRANSMISSORA DE ENERGIA S.A.", "Ano_Opera": "2017", "Tensao": "500", "longitude": "-47.70724246", "latitude": "-15.80962473", "CD_MUN": "", "grau_defeito": "0.52292758", "risco": "0.47707242" }, "geometry": { "type": "Point", "coordinates": [ -47.707242457999939, -15.809624731999975 ] } },
{ "type": "Feature", "properties": { "Nome": "SE Brasilia Sul", "Concession": "FURNAS - Furnas Centrais Elétricas S.A.", "Ano_Opera": "1972", "Tensao": "345\/230\/138", "longitude": "-48.06813669", "latitude": "-15.86248216", "CD_MUN": "", "grau_defeito": "0.51931863", "risco": "0.48068137" }, "geometry": { "type": "Point", "coordinates": [ -48.068136686999935, -15.862482155999942 ] } },
{ "type": "Feature", "properties": { "Nome": "SE Brotas de Macaubas", "Concession": "CHESF - CHESF - Companhia Hidro Elétrica do São Francisco", "Ano_Opera": "2012", "Tensao": "230", "longitude": "-42.34318352", "latitude": "-12.30847823", "CD_MUN": "", "grau_defeito": "0.57656816", "risco": "0.42343184" }, "geometry": { "type": "Point", "coordinates": [ -42.343183516999943, -12.308478226999966 ] } },
{ "type": "Feature", "properties": { "Nome": "SE Brumado II", "Concession": "AFLUENTE TRANSMISSÃO - Afluente Transmissão de Energia Elétrica SA", "Ano_Opera": "2002", "Tensao": "230\/138\/69", "longitude": "-41.63583333", "latitude": "-14.21361111", "CD_MUN": "", "grau_defeito": "0.58364167", "risco": "0.41635833" }, "geometry": { "type": "Point", "coordinates": [ -41.635833332999937, -14.213611110999977 ] } },
{ "type": "Feature", "properties": { "Nome": "SE Imbirussú", "Concession": "PORTO PRIMAVERA - Porto Primavera Transmissora de Energia S\/A.", "Ano_Opera": "2006", "Tensao": "230\/138", "longitude": "-54.75201490", "latitude": "-20.54726587", "CD_MUN": "", "grau_defeito": "0.45247985", "risco": "0.54752015" }, "geometry": { "type": "Point", "coordinates": [ -54.752014903999964, -20.547265874999937 ] } },
{ "type": "Feature", "properties": { "Nome": "SE Cabreuva", "Concession": "CTEEP - Companhia de Transmissão de Energia Elétrica Paulista", "Ano_Opera": "-", "Tensao": "440\/230\/138\/13,8", "longitude": "-47.11615813", "latitude": "-23.27746101", "CD_MUN": "", "grau_defeito": "0.52883842", "risco": "0.47116158" }, "geometry": { "type": "Point", "coordinates": [ -47.116158128999984, -23.277461009999968 ] } },
{ "type": "Feature", "properties": { "Nome": "SE Cachoeira Dourada", "Concession": "CDSA - Centrais Elétricas Cachoeira Dourada S\/A", "Ano_Opera": "1959", "Tensao": "230\/138", "longitude": "-49.48671463", "latitude": "-18.50273008", "CD_MUN": "", "grau_defeito": "0.50513285", "risco": "0.49486715" }, "geometry": { "type": "Point", "coordinates": [ -49.486714633999952, -18.502730076999967 ] } },
{ "type": "Feature", "properties": { "Nome": "SE Cachoeira Paulista", "Concession": "FURNAS - Furnas Centrais Elétricas S.A.", "Ano_Opera": "1974", "Tensao": "500\/138", "longitude": "-45.03665837", "latitude": "-22.62985380", "CD_MUN": "", "grau_defeito": "0.54963342", "risco": "0.45036658" }, "geometry": { "type": "Point", "coordinates": [ -45.036658371999977, -22.629853800999967 ] } },
{ "type": "Feature", "properties": { "Nome": "SE Caetés II", "Concession": "EOL SANTA BRIGIDA I - VENTOS DE SANTA BRIGIDA I ENERGIAS RENOVAVEIS S.A", "Ano_Opera": "2015", "Tensao": "230\/34,5", "longitude": "-36.76001044", "latitude": "-8.84376926", "CD_MUN": "", "grau_defeito": "0.6323999", "risco": "0.3676001" }, "geometry": { "type": "Point", "coordinates": [ -36.760010443999931, -8.843769261999967 ] } },
{ "type": "Feature", "properties": { "Nome": "SE Camaçari II", "Concession": "CHESF - CHESF - Companhia Hidro Elétrica do São Francisco", "Ano_Opera": "-", "Tensao": "500\/230\/69", "longitude": "-38.34495997", "latitude": "-12.61902491", "CD_MUN": "", "grau_defeito": "0.6165504", "risco": "0.3834496" }, "geometry": { "type": "Point", "coordinates": [ -38.34495997099998, -12.61902491099994 ] } },
{ "type": "Feature", "properties": { "Nome": "SE Camaçari IV", "Concession": "CHESF - CHESF - Companhia Hidro Elétrica do São Francisco", "Ano_Opera": "2012", "Tensao": "500\/230", "longitude": "-38.34355571", "latitude": "-12.61772171", "CD_MUN": "", "grau_defeito": "0.61656444", "risco": "0.38343556" }, "geometry": { "type": "Point", "coordinates": [ -38.34355571499998, -12.617721707999976 ] } },
{ "type": "Feature", "properties": { "Nome": "SE Camaquã 1", "Concession": "CEEE GT - Companhia Estadual de Geração e Transmissão de Energia Elétrica", "Ano_Opera": "-", "Tensao": "230\/69", "longitude": "-51.81573231", "latitude": "-30.82792433", "CD_MUN": "", "grau_defeito": "0.48184268", "risco": "0.51815732" }, "geometry": { "type": "Point", "coordinates": [ -51.815732314999934, -30.827924333999931 ] } },
{ "type": "Feature", "properties": { "Nome": "SE Camaquã 3", "Concession": "TSBE - Transmissora Sul Brasileira de Energia S A", "Ano_Opera": "2014", "Tensao": "230\/69", "longitude": "-51.80991742", "latitude": "-30.80930751", "CD_MUN": "", "grau_defeito": "0.48190083", "risco": "0.51809917" }, "geometry": { "type": "Point", "coordinates": [ -51.809917415999962, -30.809307505999982 ] } },
{ "type": "Feature", "properties": { "Nome": "SE Campina Grande III", "Concession": "ETN - EXTREMOZ TRANSMISSORA DO NORDESTE", "Ano_Opera": "2015", "Tensao": "500\/230", "longitude": "-35.98013610", "latitude": "-7.25324093", "CD_MUN": "", "grau_defeito": "0.64019864", "risco": "0.35980136" }, "geometry": { "type": "Point", "coordinates": [ -35.980136103999939, -7.253240929999947 ] } },
{ "type": "Feature", "properties": { "Nome": "SE Campina Grande II", "Concession": "CHESF - CHESF - Companhia Hidro Elétrica do São Francisco", "Ano_Opera": "-", "Tensao": "230\/138\/69\/13,8", "longitude": "-35.90877836", "latitude": "-7.26670434", "CD_MUN": "", "grau_defeito": "0.64091222", "risco": "0.35908778" }, "geometry": { "type": "Point", "coordinates": [ -35.908778364999932, -7.266704340999979 ] } },
{ "type": "Feature", "properties": { "Nome": "SE Campinas", "Concession": "FURNAS - Furnas Centrais Elétricas S.A.", "Ano_Opera": "1971", "Tensao": "500\/345\/138", "longitude": "-47.00487670", "latitude": "-22.77366239", "CD_MUN": "", "grau_defeito": "0.52995123", "risco": "0.47004877" }, "geometry": { "type": "Point", "coordinates": [ -47.004876703999969, -22.773662388999981 ] } },
{ "type": "Feature", "properties": { "Nome": "SE Campo Bom", "Concession": "CEEE GT - Companhia Estadual de Geração e Transmissão de Energia Elétrica", "Ano_Opera": "-", "Tensao": "230\/69\/23", "longitude": "-51.06597425", "latitude": "-29.69397040", "CD_MUN": "", "grau_defeito": "0.48934026", "risco": "0.51065974" }, "geometry": { "type": "Point", "coordinates": [ -51.065974250999943, -29.69397040299998 ] } },
{ "type": "Feature", "properties": { "Nome": "SE Campo do Assobio", "Concession": "COPEL-GT - COPEL GERAÇÃO E TRANSMISSÃO S.A", "Ano_Opera": "1998", "Tensao": "230\/138\/13,8", "longitude": "-49.18303718", "latitude": "-25.66840559", "CD_MUN": "", "grau_defeito": "0.50816963", "risco": "0.49183037" }, "geometry": { "type": "Point", "coordinates": [ -49.18303717799995, -25.668405593999978 ] } },
{ "type": "Feature", "properties": { "Nome": "SE Campo Grande 2", "Concession": "PANTANAL TRA - PANTANAL TRANSMISSAO S.A.", "Ano_Opera": "2016", "Tensao": "230\/138", "longitude": "-54.49092128", "latitude": "-20.44209400", "CD_MUN": "", "grau_defeito": "0.45509079", "risco": "0.54490921" }, "geometry": { "type": "Point", "coordinates": [ -54.490921275999938, -20.442093996999972 ] } },
{ "type": "Feature", "properties": { "Nome": "SE Campos", "Concession": "FURNAS - Furnas Centrais Elétricas S.A", "Ano_Opera": "1973", "Tensao": "345\/138", "longitude": "-41.33744500", "latitude": "-21.71847014", "CD_MUN": "", "grau_defeito": "0.58662555", "risco": "0.41337445" }, "geometry": { "type": "Point", "coordinates": [ -41.337445, -21.718470142999934 ] } },
{ "type": "Feature", "properties": { "Nome": "SE Campo Mourão", "Concession": "ELETROSUL - ELETROSUL Centrais Elétricas S.A.", "Ano_Opera": "-", "Tensao": "230\/138", "longitude": "-52.36761377", "latitude": "-24.07476567", "CD_MUN": "", "grau_defeito": "0.47632386", "risco": "0.52367614" }, "geometry": { "type": "Point", "coordinates": [ -52.367613767999956, -24.074765673999934 ] } },
{ "type": "Feature", "properties": { "Nome": "SE Campos Novos", "Concession": "ELETROSUL - ELETROSUL Centrais Elétricas S.A.", "Ano_Opera": "-", "Tensao": "525\/230\/138", "longitude": "-51.41770120", "latitude": "-27.53928362", "CD_MUN": "", "grau_defeito": "0.48582299", "risco": "0.51417701" }, "geometry": { "type": "Point", "coordinates": [ -51.417701204999958, -27.539283624999939 ] } },
{ "type": "Feature", "properties": { "Nome": "SE UHE Cana Brava", "Concession": "ENGIE - ENGIE BRASIL ENERGIA SA", "Ano_Opera": "2002", "Tensao": "230\/13,8", "longitude": "-48.14054700", "latitude": "-13.39959600", "CD_MUN": "", "grau_defeito": "0.51859453", "risco": "0.48140547" }, "geometry": { "type": "Point", "coordinates": [ -48.140547, -13.399596 ] } },
{ "type": "Feature", "properties": { "Nome": "SE Canarana", "Concession": "STATE GRID - State Grid Brazil Holding Sa", "Ano_Opera": "2018", "Tensao": "230\/138", "longitude": "-52.29120698", "latitude": "-13.52447026", "CD_MUN": "", "grau_defeito": "0.47708793", "risco": "0.52291207" }, "geometry": { "type": "Point", "coordinates": [ -52.291206983999984, -13.524470258999941 ] } },
{ "type": "Feature", "properties": { "Nome": "SE Presidente Médici", "Concession": "CEEE GT - Companhia Estadual de Geração e Transmissão de Energia Elétrica", "Ano_Opera": "2005", "Tensao": "230\/138", "longitude": "-53.68124860", "latitude": "-31.55113228", "CD_MUN": "", "grau_defeito": "0.46318751", "risco": "0.53681249" }, "geometry": { "type": "Point", "coordinates": [ -53.681248595999932, -31.551132278999944 ] } },
{ "type": "Feature", "properties": { "Nome": "SE Canoas 2", "Concession": "CEEE GT - Companhia Estadual de Geração e Transmissão de Energia Elétrica", "Ano_Opera": "2002", "Tensao": "230", "longitude": "-51.14391906", "latitude": "-29.87477914", "CD_MUN": "", "grau_defeito": "0.48856081", "risco": "0.51143919" }, "geometry": { "type": "Point", "coordinates": [ -51.143919059999973, -29.874779144999934 ] } },
{ "type": "Feature", "properties": { "Nome": "SE Canoinhas", "Concession": "ELETROSUL - ELETROSUL Centrais Elétricas S.A.", "Ano_Opera": "-", "Tensao": "230\/138", "longitude": "-50.40314097", "latitude": "-26.19641161", "CD_MUN": "", "grau_defeito": "0.49596859", "risco": "0.50403141" }, "geometry": { "type": "Point", "coordinates": [ -50.403140968999935, -26.196411610999974 ] } },
{ "type": "Feature", "properties": { "Nome": "SE Capão Bonito", "Concession": "CTEEP - Companhia de Transmissão de Energia Elétrica Paulista", "Ano_Opera": "-", "Tensao": "230\/138\/13,8", "longitude": "-48.34307900", "latitude": "-23.98669400", "CD_MUN": "", "grau_defeito": "0.51656921", "risco": "0.48343079" }, "geometry": { "type": "Point", "coordinates": [ -48.343079, -23.986693998999954 ] } },
{ "type": "Feature", "properties": { "Nome": "SE Capivara", "Concession": "DUKE ENERGY - Duke Energy Internacional - Geração Paranapanema", "Ano_Opera": "1977", "Tensao": "440\/138\/14,4", "longitude": "-51.36031304", "latitude": "-22.65765743", "CD_MUN": "", "grau_defeito": "0.48639687", "risco": "0.51360313" }, "geometry": { "type": "Point", "coordinates": [ -51.360313043999952, -22.657657434999976 ] } },
{ "type": "Feature", "properties": { "Nome": "SE Carajás (PA)", "Concession": "ELETRONORTE - Centrais Elétricas do Norte do Brasil S\/A", "Ano_Opera": "2006", "Tensao": "230\/138", "longitude": "-49.88848856", "latitude": "-5.98097700", "CD_MUN": "", "grau_defeito": "0.50111511", "risco": "0.49888489" }, "geometry": { "type": "Point", "coordinates": [ -49.888488563999942, -5.980977 ] } },
{ "type": "Feature", "properties": { "Nome": "SE Carajás (GO)", "Concession": "CELG - GT - CELG GERAÇÃO E TRANSMISSÃO S\/A", "Ano_Opera": "2009", "Tensao": "230\/138", "longitude": "-49.35241994", "latitude": "-16.71982524", "CD_MUN": "", "grau_defeito": "0.5064758", "risco": "0.4935242" }, "geometry": { "type": "Point", "coordinates": [ -49.352419944999951, -16.719825241999956 ] } },
{ "type": "Feature", "properties": { "Nome": "SE Cascavel", "Concession": "COPEL-GT - COPEL GERAÇÃO E TRANSMISSÃO S.A", "Ano_Opera": "1986", "Tensao": "230\/138\/34,5\/13,8", "longitude": "-53.45617800", "latitude": "-24.99503300", "CD_MUN": "", "grau_defeito": "0.46543822", "risco": "0.53456178" }, "geometry": { "type": "Point", "coordinates": [ -53.456178, -24.995032998999932 ] } },
{ "type": "Feature", "properties": { "Nome": "SE Cascavel Oeste", "Concession": "COPEL-GT - COPEL GERAÇÃO E TRANSMISSÃO S.A", "Ano_Opera": "2001", "Tensao": "525\/230", "longitude": "-53.53319529", "latitude": "-25.02909701", "CD_MUN": "", "grau_defeito": "0.46466805", "risco": "0.53533195" }, "geometry": { "type": "Point", "coordinates": [ -53.533195287999945, -25.029097011999966 ] } },
{ "type": "Feature", "properties": { "Nome": "SE Catu", "Concession": "CHESF - CHESF - Companhia Hidro Elétrica do São Francisco", "Ano_Opera": "-", "Tensao": "230\/69", "longitude": "-38.36361327", "latitude": "-12.39752335", "CD_MUN": "", "grau_defeito": "0.61636387", "risco": "0.38363613" }, "geometry": { "type": "Point", "coordinates": [ -38.363613274999977, -12.39752335299994 ] } },
{ "type": "Feature", "properties": { "Nome": "SE Cauípe", "Concession": "CHESF - CHESF - Companhia Hidro Elétrica do São Francisco", "Ano_Opera": "-", "Tensao": "230\/69", "longitude": "-38.87081591", "latitude": "-3.69425850", "CD_MUN": "", "grau_defeito": "0.61129184", "risco": "0.38870816" }, "geometry": { "type": "Point", "coordinates": [ -38.87081590899993, -3.694258496999964 ] } },
{ "type": "Feature", "properties": { "Nome": "SE Caxias", "Concession": "ELETROSUL - ELETROSUL Centrais Elétricas S.A.", "Ano_Opera": "2001", "Tensao": "525\/230", "longitude": "-51.20116140", "latitude": "-29.27703068", "CD_MUN": "", "grau_defeito": "0.48798839", "risco": "0.51201161" }, "geometry": { "type": "Point", "coordinates": [ -51.201161400999979, -29.277030683999953 ] } },
{ "type": "Feature", "properties": { "Nome": "SE Caxias do Sul 5", "Concession": "CEEE GT - Companhia Estadual de Geração e Transmissão de Energia Elétrica", "Ano_Opera": "-", "Tensao": "230\/69\/13,8", "longitude": "-51.19154243", "latitude": "-29.13234567", "CD_MUN": "", "grau_defeito": "0.48808458", "risco": "0.51191542" }, "geometry": { "type": "Point", "coordinates": [ -51.191542426999945, -29.1323456699999 ] } },
{ "type": "Feature", "properties": { "Nome": "SE Caxias do Sul 2", "Concession": "CEEE GT - Companhia Estadual de Geração e Transmissão de Energia Elétrica", "Ano_Opera": "-", "Tensao": "230\/69", "longitude": "-51.15726309", "latitude": "-29.14224551", "CD_MUN": "", "grau_defeito": "0.48842737", "risco": "0.51157263" }, "geometry": { "type": "Point", "coordinates": [ -51.157263091999937, -29.142245507999974 ] } },
{ "type": "Feature", "properties": { "Nome": "SE Schincariol", "Concession": "-", "Ano_Opera": "-", "Tensao": "230", "longitude": "-43.40849626", "latitude": "-4.87215061", "CD_MUN": "", "grau_defeito": "0.56591504", "risco": "0.43408496" }, "geometry": { "type": "Point", "coordinates": [ -43.408496258999946, -4.872150605999934 ] } },
{ "type": "Feature", "properties": { "Nome": "SE CBA 2", "Concession": "CTEEP - Companhia de Transmissão de Energia Elétrica Paulista", "Ano_Opera": "2006", "Tensao": "440\/230", "longitude": "-47.29641348", "latitude": "-23.54082718", "CD_MUN": "", "grau_defeito": "0.52703587", "risco": "0.47296413" }, "geometry": { "type": "Point", "coordinates": [ -47.296413480999945, -23.540827176999983 ] } },
{ "type": "Feature", "properties": { "Nome": "SE Ceará Mirim II", "Concession": "ETN - EXTREMOZ TRANSMISSORA DO NORDESTE", "Ano_Opera": "2014", "Tensao": "500\/230", "longitude": "-35.45214311", "latitude": "-5.67335594", "CD_MUN": "", "grau_defeito": "0.64547857", "risco": "0.35452143" }, "geometry": { "type": "Point", "coordinates": [ -35.452143110999941, -5.673355939999965 ] } },
{ "type": "Feature", "properties": { "Nome": "SE Aimorés", "Concession": "CEMIG - Companhia Energética de Minas Gerais", "Ano_Opera": "2005", "Tensao": "230", "longitude": "-41.02360371", "latitude": "-19.49999583", "CD_MUN": "", "grau_defeito": "0.58976396", "risco": "0.41023604" }, "geometry": { "type": "Point", "coordinates": [ -41.02360370699995, -19.499995828999943 ] } },
{ "type": "Feature", "properties": { "Nome": "SE Centro - CTR", "Concession": "CTEEP - Companhia de Transmissão de Energia Elétrica Paulista", "Ano_Opera": "-", "Tensao": "230\/88\/20", "longitude": "-46.64829900", "latitude": "-23.53680000", "CD_MUN": "", "grau_defeito": "0.53351701", "risco": "0.46648299" }, "geometry": { "type": "Point", "coordinates": [ -46.648299, -23.536799998999982 ] } },
{ "type": "Feature", "properties": { "Nome": "SE Centro - CTT", "Concession": "CTEEP - Companhia de Transmissão de Energia Elétrica Paulista", "Ano_Opera": "-", "Tensao": "230", "longitude": "-46.72144400", "latitude": "-23.51301400", "CD_MUN": "", "grau_defeito": "0.53278556", "risco": "0.46721444" }, "geometry": { "type": "Point", "coordinates": [ -46.721444, -23.513013998999952 ] } },
{ "type": "Feature", "properties": { "Nome": "SE Cerquilho III", "Concession": "COPEL-GT - COPEL GERAÇÃO E TRANSMISSÃO S.A", "Ano_Opera": "2014", "Tensao": "230\/138", "longitude": "-47.77442602", "latitude": "-23.14004565", "CD_MUN": "", "grau_defeito": "0.52225574", "risco": "0.47774426" }, "geometry": { "type": "Point", "coordinates": [ -47.774426024999968, -23.140045652999959 ] } },
{ "type": "Feature", "properties": { "Nome": "SE Chavantes", "Concession": "DUKE ENERGY - Duke Energy Internacional - Geração Paranapanema", "Ano_Opera": "1970", "Tensao": "230\/88", "longitude": "-49.72871700", "latitude": "-23.12600700", "CD_MUN": "", "grau_defeito": "0.50271283", "risco": "0.49728717" }, "geometry": { "type": "Point", "coordinates": [ -49.728717, -23.126006998999969 ] } },
{ "type": "Feature", "properties": { "Nome": "SE Cícero Dantas", "Concession": "CHESF - CHESF - Companhia Hidro Elétrica do São Francisco", "Ano_Opera": "-", "Tensao": "230\/69", "longitude": "-38.36720902", "latitude": "-10.59735137", "CD_MUN": "", "grau_defeito": "0.61632791", "risco": "0.38367209" }, "geometry": { "type": "Point", "coordinates": [ -38.367209017999983, -10.597351369999956 ] } },
{ "type": "Feature", "properties": { "Nome": "SE Cidade Industrial", "Concession": "CEEE GT - Companhia Estadual de Geração e Transmissão de Energia Elétrica", "Ano_Opera": "-", "Tensao": "230\/138\/23", "longitude": "-51.17999268", "latitude": "-29.89129639", "CD_MUN": "", "grau_defeito": "0.48820007", "risco": "0.51179993" }, "geometry": { "type": "Point", "coordinates": [ -51.179992675999983, -29.891296385999965 ] } },
{ "type": "Feature", "properties": { "Nome": "SE Cidade Industrial de Curitiba", "Concession": "COPEL-GT - COPEL GERAÇÃO E TRANSMISSÃO S.A", "Ano_Opera": "2003", "Tensao": "230\/69\/13,8", "longitude": "-49.33271847", "latitude": "-25.52586406", "CD_MUN": "", "grau_defeito": "0.50667282", "risco": "0.49332718" }, "geometry": { "type": "Point", "coordinates": [ -49.332718468999985, -25.525864057999968 ] } },
{ "type": "Feature", "properties": { "Nome": "SE Cláudia", "Concession": "MATRINCHA - MATRINCHA TRANSMISSORA DE ENERGIA S A", "Ano_Opera": "2015", "Tensao": "500", "longitude": "-55.33391193", "latitude": "-11.29019997", "CD_MUN": "", "grau_defeito": "0.44666088", "risco": "0.55333912" }, "geometry": { "type": "Point", "coordinates": [ -55.333911928999953, -11.290199967999968 ] } },
{ "type": "Feature", "properties": { "Nome": "SE Codemin", "Concession": "-", "Ano_Opera": "-", "Tensao": "230", "longitude": "-48.33782853", "latitude": "-14.15866315", "CD_MUN": "", "grau_defeito": "0.51662171", "risco": "0.48337829" }, "geometry": { "type": "Point", "coordinates": [ -48.337828531999946, -14.158663150999928 ] } },
{ "type": "Feature", "properties": { "Nome": "SE Coelho Neto", "Concession": "ELETRONORTE - Centrais Elétricas do Norte do Brasil S\/A", "Ano_Opera": "-", "Tensao": "230\/69", "longitude": "-42.98671356", "latitude": "-4.29813385", "CD_MUN": "", "grau_defeito": "0.57013286", "risco": "0.42986714" }, "geometry": { "type": "Point", "coordinates": [ -42.986713556999973, -4.298133845999928 ] } },
{ "type": "Feature", "properties": { "Nome": "SE Chapadão", "Concession": "ITATIM - Linhas de Transmissão Itatim Ldta", "Ano_Opera": "2011", "Tensao": "230\/138", "longitude": "-52.38907909", "latitude": "-18.91137369", "CD_MUN": "", "grau_defeito": "0.47610921", "risco": "0.52389079" }, "geometry": { "type": "Point", "coordinates": [ -52.389079085999981, -18.911373690999937 ] } },
{ "type": "Feature", "properties": { "Nome": "SE Coletora Porto Velho", "Concession": "ELETRONORTE - Centrais Elétricas do Norte do Brasil S\/A", "Ano_Opera": "2011", "Tensao": "500\/230", "longitude": "-63.95852284", "latitude": "-8.91358909", "CD_MUN": "", "grau_defeito": "0.36041477", "risco": "0.63958523" }, "geometry": { "type": "Point", "coordinates": [ -63.958522844999948, -8.913589086999934 ] } },
{ "type": "Feature", "properties": { "Nome": "SE Colinas", "Concession": "ELETRONORTE - Centrais Elétricas do Norte do Brasil S\/A", "Ano_Opera": "-", "Tensao": "500", "longitude": "-48.45528975", "latitude": "-7.97009339", "CD_MUN": "", "grau_defeito": "0.5154471", "risco": "0.4845529" }, "geometry": { "type": "Point", "coordinates": [ -48.455289752999931, -7.970093388999942 ] } },
{ "type": "Feature", "properties": { "Nome": "SE Conselheiro Lafaiete", "Concession": "CEMIG - Companhia Energética de Minas Gerais", "Ano_Opera": "1955", "Tensao": "345\/138", "longitude": "-43.82332091", "latitude": "-20.66320254", "CD_MUN": "", "grau_defeito": "0.56176679", "risco": "0.43823321" }, "geometry": { "type": "Point", "coordinates": [ -43.823320914999954, -20.663202540999976 ] } },
{ "type": "Feature", "properties": { "Nome": "SE Conselheiro Pena", "Concession": "CEMIG - Companhia Energética de Minas Gerais", "Ano_Opera": "-", "Tensao": "230\/69\/13,8", "longitude": "-41.48298275", "latitude": "-19.18044128", "CD_MUN": "", "grau_defeito": "0.58517017", "risco": "0.41482983" }, "geometry": { "type": "Point", "coordinates": [ -41.482982748999973, -19.180441276999943 ] } },
{ "type": "Feature", "properties": { "Nome": "SE Coremas", "Concession": "CHESF - CHESF - Companhia Hidro Elétrica do São Francisco", "Ano_Opera": "-", "Tensao": "230", "longitude": "-37.95573527", "latitude": "-7.01617897", "CD_MUN": "", "grau_defeito": "0.62044265", "risco": "0.37955735" }, "geometry": { "type": "Point", "coordinates": [ -37.955735273999949, -7.016178967999963 ] } },
{ "type": "Feature", "properties": { "Nome": "SE UHE Corumbá", "Concession": "FURNAS - Furnas Centrais Elétricas S.A.", "Ano_Opera": "1998", "Tensao": "345\/138", "longitude": "-48.54125238", "latitude": "-17.98674582", "CD_MUN": "", "grau_defeito": "0.51458748", "risco": "0.48541252" }, "geometry": { "type": "Point", "coordinates": [ -48.541252383999961, -17.986745818999964 ] } },
{ "type": "Feature", "properties": { "Nome": "SE Corumbá 2", "Concession": "LTC - LINHA DE TRANSMISSÃO CORUMBÁ", "Ano_Opera": "2013", "Tensao": "230\/138", "longitude": "-57.61957908", "latitude": "-19.03851033", "CD_MUN": "", "grau_defeito": "0.42380421", "risco": "0.57619579" }, "geometry": { "type": "Point", "coordinates": [ -57.619579080999983, -19.03851033199993 ] } },
{ "type": "Feature", "properties": { "Nome": "SE Coxipó", "Concession": "ELETRONORTE - Centrais Elétricas do Norte do Brasil S\/A", "Ano_Opera": "-", "Tensao": "230\/138", "longitude": "-55.99776204", "latitude": "-15.62848878", "CD_MUN": "", "grau_defeito": "0.44002238", "risco": "0.55997762" }, "geometry": { "type": "Point", "coordinates": [ -55.997762040999987, -15.628488779999941 ] } },
{ "type": "Feature", "properties": { "Nome": "SE Cuiabá", "Concession": "AETE - AMAZÔNIA - ELETRONORTE TRANSMISSORA DE ENERGIA S.A.", "Ano_Opera": "2005", "Tensao": "500\/230", "longitude": "-55.85390978", "latitude": "-15.68594173", "CD_MUN": "", "grau_defeito": "0.4414609", "risco": "0.5585391" }, "geometry": { "type": "Point", "coordinates": [ -55.853909784999985, -15.685941734999972 ] } },
{ "type": "Feature", "properties": { "Nome": "SE Curitiba", "Concession": "ELETROSUL - ELETROSUL Centrais Elétricas S.A.", "Ano_Opera": "-", "Tensao": "525\/230", "longitude": "-49.31812903", "latitude": "-25.59322657", "CD_MUN": "", "grau_defeito": "0.50681871", "risco": "0.49318129" }, "geometry": { "type": "Point", "coordinates": [ -49.31812903399998, -25.593226571999935 ] } },
{ "type": "Feature", "properties": { "Nome": "SE Curitiba Leste", "Concession": "MARUMBI - MARUMBI TRANSMISSORA DE ENERGIA S.A", "Ano_Opera": "2015", "Tensao": "525\/230", "longitude": "-49.07982191", "latitude": "-25.57142372", "CD_MUN": "", "grau_defeito": "0.50920178", "risco": "0.49079822" }, "geometry": { "type": "Point", "coordinates": [ -49.079821907999985, -25.571423724999931 ] } },
{ "type": "Feature", "properties": { "Nome": "SE Delmiro Gouveia", "Concession": "CHESF - CHESF - Companhia Hidro Elétrica do São Francisco", "Ano_Opera": "-", "Tensao": "230\/69", "longitude": "-38.51535335", "latitude": "-3.78736473", "CD_MUN": "", "grau_defeito": "0.61484647", "risco": "0.38515353" }, "geometry": { "type": "Point", "coordinates": [ -38.515353353999956, -3.787364726999954 ] } },
{ "type": "Feature", "properties": { "Nome": "SE Desterro", "Concession": "ELETROSUL - ELETROSUL Centrais Elétricas S.A.", "Ano_Opera": "2008", "Tensao": "230\/138", "longitude": "-48.51397835", "latitude": "-27.67027220", "CD_MUN": "", "grau_defeito": "0.51486022", "risco": "0.48513978" }, "geometry": { "type": "Point", "coordinates": [ -48.513978349999945, -27.670272200999932 ] } },
{ "type": "Feature", "properties": { "Nome": "SE Distrito Industrial de São José dos Pinhais", "Concession": "COPEL-GT - COPEL GERAÇÃO E TRANSMISSÃO S.A", "Ano_Opera": "-", "Tensao": "230\/69\/13,8", "longitude": "-49.12808169", "latitude": "-25.52959436", "CD_MUN": "", "grau_defeito": "0.50871918", "risco": "0.49128082" }, "geometry": { "type": "Point", "coordinates": [ -49.128081688999941, -25.529594360999965 ] } },
{ "type": "Feature", "properties": { "Nome": "SE Dona Francisca", "Concession": "DFESA - Dona Francisca Energética S.A.", "Ano_Opera": "2001", "Tensao": "230\/13,8", "longitude": "-53.28979492", "latitude": "-29.45098877", "CD_MUN": "", "grau_defeito": "0.46710205", "risco": "0.53289795" }, "geometry": { "type": "Point", "coordinates": [ -53.289794921999942, -29.450988768999935 ] } },
{ "type": "Feature", "properties": { "Nome": "SE Dourados", "Concession": "ELETROSUL - ELETROSUL Centrais Elétricas S.A.", "Ano_Opera": "-", "Tensao": "230\/138", "longitude": "-54.99194986", "latitude": "-22.26873127", "CD_MUN": "", "grau_defeito": "0.4500805", "risco": "0.5499195" }, "geometry": { "type": "Point", "coordinates": [ -54.991949862999945, -22.268731268999943 ] } },
{ "type": "Feature", "properties": { "Nome": "SE Edgard de Souza", "Concession": "CTEEP - Companhia de Transmissão de Energia Elétrica Paulista", "Ano_Opera": "-", "Tensao": "230\/88", "longitude": "-46.90779900", "latitude": "-23.45319000", "CD_MUN": "", "grau_defeito": "0.53092201", "risco": "0.46907799" }, "geometry": { "type": "Point", "coordinates": [ -46.907799, -23.45318999899996 ] } },
{ "type": "Feature", "properties": { "Nome": "SE Eldorado do Sul", "Concession": "CEEE GT - Companhia Estadual de Geração e Transmissão de Energia Elétrica", "Ano_Opera": "-", "Tensao": "230\/23", "longitude": "-51.31855315", "latitude": "-30.01457495", "CD_MUN": "", "grau_defeito": "0.48681447", "risco": "0.51318553" }, "geometry": { "type": "Point", "coordinates": [ -51.318553148999968, -30.014574945999982 ] } },
{ "type": "Feature", "properties": { "Nome": "SE Eliseu Martins", "Concession": "CHESF - CHESF - Companhia Hidro Elétrica do São Francisco", "Ano_Opera": "2006", "Tensao": "230\/69", "longitude": "-43.67027900", "latitude": "-8.09853200", "CD_MUN": "", "grau_defeito": "0.56329721", "risco": "0.43670279" }, "geometry": { "type": "Point", "coordinates": [ -43.670279, -8.098532 ] } },
{ "type": "Feature", "properties": { "Nome": "SE Emborcação", "Concession": "CEMIG GT - CEMIG GERAÇÃO E TRANSMISSÃO S.A", "Ano_Opera": "1982", "Tensao": "500\/138", "longitude": "-47.98651100", "latitude": "-18.45727500", "CD_MUN": "", "grau_defeito": "0.52013489", "risco": "0.47986511" }, "geometry": { "type": "Point", "coordinates": [ -47.986511, -18.457274998999935 ] } },
{ "type": "Feature", "properties": { "Nome": "SE Embu-Guaçu", "Concession": "CTEEP - Companhia de Transmissão de Energia Elétrica Paulista", "Ano_Opera": "-", "Tensao": "440\/345\/138\/16\/13,8", "longitude": "-46.79983169", "latitude": "-23.84466360", "CD_MUN": "", "grau_defeito": "0.53200168", "risco": "0.46799832" }, "geometry": { "type": "Point", "coordinates": [ -46.799831686999937, -23.844663598999944 ] } },
{ "type": "Feature", "properties": { "Nome": "SE Encruzo Novo", "Concession": "ENCRUZO NOVO - ENCRUZO NOVO TRANSMISSORA DE ENRGIA LTDA", "Ano_Opera": "2012", "Tensao": "230\/69", "longitude": "-45.85481618", "latitude": "-2.21815970", "CD_MUN": "", "grau_defeito": "0.54145184", "risco": "0.45854816" }, "geometry": { "type": "Point", "coordinates": [ -45.854816175999986, -2.218159697999965 ] } },
{ "type": "Feature", "properties": { "Nome": "SE UHE Luiz Carlos Barreto de Carvalho (Estreito)", "Concession": "FURNAS - Furnas Centrais Elétricas S.A.", "Ano_Opera": "1970", "Tensao": "345\/13,8", "longitude": "-47.28466965", "latitude": "-20.15497695", "CD_MUN": "", "grau_defeito": "0.5271533", "risco": "0.4728467" }, "geometry": { "type": "Point", "coordinates": [ -47.28466964699993, -20.154976946999966 ] } },
{ "type": "Feature", "properties": { "Nome": "SE Estreito", "Concession": "LTT - LT Triângulo S.A.", "Ano_Opera": "2008", "Tensao": "500\/345", "longitude": "-47.17519772", "latitude": "-20.26045480", "CD_MUN": "", "grau_defeito": "0.52824802", "risco": "0.47175198" }, "geometry": { "type": "Point", "coordinates": [ -47.175197716999946, -20.260454796999966 ] } },
{ "type": "Feature", "properties": { "Nome": "SE Eunápolis", "Concession": "CHESF - CHESF - Companhia Hidro Elétrica do São Francisco", "Ano_Opera": "-", "Tensao": "230\/138", "longitude": "-39.55001697", "latitude": "-16.33875296", "CD_MUN": "", "grau_defeito": "0.60449983", "risco": "0.39550017" }, "geometry": { "type": "Point", "coordinates": [ -39.550016968999955, -16.338752962999934 ] } },
{ "type": "Feature", "properties": { "Nome": "SE Extremoz II", "Concession": "CHESF - CHESF - Companhia Hidro Elétrica do São Francisco", "Ano_Opera": "2014", "Tensao": "230\/69", "longitude": "-35.30406637", "latitude": "-5.73817631", "CD_MUN": "", "grau_defeito": "0.64695934", "risco": "0.35304066" }, "geometry": { "type": "Point", "coordinates": [ -35.304066368999941, -5.73817631299994 ] } },
{ "type": "Feature", "properties": { "Nome": "SE Farroupilha", "Concession": "ELETROSUL - ELETROSUL Centrais Elétricas S.A.", "Ano_Opera": "-", "Tensao": "230\/69", "longitude": "-51.32444556", "latitude": "-29.22053729", "CD_MUN": "", "grau_defeito": "0.48675554", "risco": "0.51324446" }, "geometry": { "type": "Point", "coordinates": [ -51.324445556999933, -29.220537288999935 ] } },
{ "type": "Feature", "properties": { "Nome": "SE Tomba", "Concession": "AFLUENTE TRANSMISSÃO - Afluente Transmissão de Energia Elétrica SA", "Ano_Opera": "-", "Tensao": "230\/69", "longitude": "-38.96793235", "latitude": "-12.28826091", "CD_MUN": "", "grau_defeito": "0.61032068", "risco": "0.38967932" }, "geometry": { "type": "Point", "coordinates": [ -38.967932352999981, -12.288260911999942 ] } },
{ "type": "Feature", "properties": { "Nome": "SE Fernão Dias", "Concession": "MSGT - MATA DE SANTA GENEBRA TRANSMISSAO S.A.", "Ano_Opera": "2020", "Tensao": "500\/440", "longitude": "-46.51469192", "latitude": "-23.05792868", "CD_MUN": "", "grau_defeito": "0.53485308", "risco": "0.46514692" }, "geometry": { "type": "Point", "coordinates": [ -46.51469192299993, -23.05792867699995 ] } },
{ "type": "Feature", "properties": { "Nome": "SE Fibraplac", "Concession": "FIBRAPLAC - Fibraplac Chapas de MDF Ltda", "Ano_Opera": "2003", "Tensao": "230\/13,8", "longitude": "-50.76690363", "latitude": "-29.89833743", "CD_MUN": "", "grau_defeito": "0.49233096", "risco": "0.50766904" }, "geometry": { "type": "Point", "coordinates": [ -50.766903626999976, -29.898337431999948 ] } },
{ "type": "Feature", "properties": { "Nome": "SE Figueira", "Concession": "COPEL-GT - COPEL GERAÇÃO E TRANSMISSÃO S.A", "Ano_Opera": "-", "Tensao": "230\/138", "longitude": "-50.38843100", "latitude": "-23.84937700", "CD_MUN": "", "grau_defeito": "0.49611569", "risco": "0.50388431" }, "geometry": { "type": "Point", "coordinates": [ -50.388431, -23.849376998999958 ] } },
{ "type": "Feature", "properties": { "Nome": "SE Firminópolis", "Concession": "CELG - GT - CELG GERAÇÃO E TRANSMISSÃO S\/A", "Ano_Opera": "1997", "Tensao": "230\/138", "longitude": "-50.32754954", "latitude": "-16.59180780", "CD_MUN": "", "grau_defeito": "0.4967245", "risco": "0.5032755" }, "geometry": { "type": "Point", "coordinates": [ -50.3275495399999, -16.591807804999974 ] } },
{ "type": "Feature", "properties": { "Nome": "SE Forquilhinha", "Concession": "IES - INTERLIGAÇÃO ELÉTRICA SUL S.A", "Ano_Opera": "2011", "Tensao": "230\/69", "longitude": "-49.52359311", "latitude": "-28.75114146", "CD_MUN": "", "grau_defeito": "0.50476407", "risco": "0.49523593" }, "geometry": { "type": "Point", "coordinates": [ -49.523593107999943, -28.751141461999964 ] } },
{ "type": "Feature", "properties": { "Nome": "SE Fortaleza II", "Concession": "CHESF - CHESF - Companhia Hidro Elétrica do São Francisco", "Ano_Opera": "-", "Tensao": "500\/230", "longitude": "-38.54352152", "latitude": "-3.83302535", "CD_MUN": "", "grau_defeito": "0.61456478", "risco": "0.38543522" }, "geometry": { "type": "Point", "coordinates": [ -38.54352152499996, -3.833025345999943 ] } },
{ "type": "Feature", "properties": { "Nome": "SE Foz do Chapecó", "Concession": "FOZ CHAPECÓ - Foz do Chapecó Energia S.A.", "Ano_Opera": "2010", "Tensao": "230\/138", "longitude": "-53.05288712", "latitude": "-27.13948468", "CD_MUN": "", "grau_defeito": "0.46947113", "risco": "0.53052887" }, "geometry": { "type": "Point", "coordinates": [ -53.052887123999938, -27.139484677999974 ] } },
{ "type": "Feature", "properties": { "Nome": "SE Foz do Chopim", "Concession": "COPEL-GT - COPEL GERAÇÃO E TRANSMISSÃO S.A", "Ano_Opera": "1998", "Tensao": "230\/138", "longitude": "-53.09613544", "latitude": "-25.52354672", "CD_MUN": "", "grau_defeito": "0.46903865", "risco": "0.53096135" }, "geometry": { "type": "Point", "coordinates": [ -53.096135440999944, -25.523546715999942 ] } },
{ "type": "Feature", "properties": { "Nome": "SE Foz do Iguaçu", "Concession": "FURNAS - Furnas Centrais Elétricas S.A.", "Ano_Opera": "1984", "Tensao": "765\/600\/500\/127", "longitude": "-54.53942280", "latitude": "-25.46783597", "CD_MUN": "", "grau_defeito": "0.45460577", "risco": "0.54539423" }, "geometry": { "type": "Point", "coordinates": [ -54.539422802999979, -25.467835966999928 ] } },
{ "type": "Feature", "properties": { "Nome": "SE Funil", "Concession": "CHESF - CHESF - Companhia Hidro Elétrica do São Francisco", "Ano_Opera": "-", "Tensao": "230\/138", "longitude": "-39.46218989", "latitude": "-14.23271391", "CD_MUN": "", "grau_defeito": "0.6053781", "risco": "0.3946219" }, "geometry": { "type": "Point", "coordinates": [ -39.462189886999965, -14.232713910999962 ] } },
{ "type": "Feature", "properties": { "Nome": "SE Poços de Caldas", "Concession": "FURNAS - Furnas Centrais Elétricas S.A.", "Ano_Opera": "1963", "Tensao": "500\/345\/138", "longitude": "-46.61351698", "latitude": "-21.79913734", "CD_MUN": "", "grau_defeito": "0.53386483", "risco": "0.46613517" }, "geometry": { "type": "Point", "coordinates": [ -46.613516983999943, -21.799137336999934 ] } },
{ "type": "Feature", "properties": { "Nome": "SE Garabi II", "Concession": "CIEN - Companhia de Interconexão Energética", "Ano_Opera": "2002", "Tensao": "500", "longitude": "-55.67255053", "latitude": "-28.25329101", "CD_MUN": "", "grau_defeito": "0.44327449", "risco": "0.55672551" }, "geometry": { "type": "Point", "coordinates": [ -55.672550529999967, -28.253291007999962 ] } },
{ "type": "Feature", "properties": { "Nome": "SE Garanhuns II", "Concession": "IEG - INTERLIGAÇÃO ELÉTRICA GARANHUNS", "Ano_Opera": "2015", "Tensao": "500\/230", "longitude": "-36.40340038", "latitude": "-8.88261359", "CD_MUN": "", "grau_defeito": "0.635966", "risco": "0.364034" }, "geometry": { "type": "Point", "coordinates": [ -36.403400380999983, -8.88261358799997 ] } },
{ "type": "Feature", "properties": { "Nome": "SE Garibaldi 1", "Concession": "CEEE GT - Companhia Estadual de Geração e Transmissão de Energia Elétrica", "Ano_Opera": "-", "Tensao": "230\/69", "longitude": "-51.51223945", "latitude": "-29.23911515", "CD_MUN": "", "grau_defeito": "0.48487761", "risco": "0.51512239" }, "geometry": { "type": "Point", "coordinates": [ -51.512239447999946, -29.239115152999943 ] } },
{ "type": "Feature", "properties": { "Nome": "SE Gentio do Ouro II", "Concession": "TJMME - TRANSMISSORA JOSE MARIA DE MACEDO DE ELETRICIDADE S.A.", "Ano_Opera": "2018", "Tensao": "500\/230", "longitude": "-42.66661918", "latitude": "-11.28014446", "CD_MUN": "", "grau_defeito": "0.57333381", "risco": "0.42666619" }, "geometry": { "type": "Point", "coordinates": [ -42.666619177999962, -11.28014445599996 ] } },
{ "type": "Feature", "properties": { "Nome": "SE Gerdau SP", "Concession": "CTEEP - Companhia de Transmissão de Energia Elétrica Paulista", "Ano_Opera": "2005", "Tensao": "440\/33\/13,8", "longitude": "-47.08499913", "latitude": "-23.43818616", "CD_MUN": "", "grau_defeito": "0.52915001", "risco": "0.47084999" }, "geometry": { "type": "Point", "coordinates": [ -47.08499913199995, -23.438186157999951 ] } },
{ "type": "Feature", "properties": { "Nome": "SE Getulina", "Concession": "IEP - INTERLIGAÇÃO ELÉTRICA PINHEIROS S.A", "Ano_Opera": "2011", "Tensao": "440\/138", "longitude": "-49.83826300", "latitude": "-21.85555100", "CD_MUN": "", "grau_defeito": "0.50161737", "risco": "0.49838263" }, "geometry": { "type": "Point", "coordinates": [ -49.838263, -21.855550998999945 ] } },
{ "type": "Feature", "properties": { "Nome": "SE Gilbués II", "Concession": "ATEXVI - ATE XVI TRANSMISSORA DE ENERGIA SA", "Ano_Opera": "2017", "Tensao": "500\/230\/69", "longitude": "-45.34632674", "latitude": "-9.75302185", "CD_MUN": "", "grau_defeito": "0.54653673", "risco": "0.45346327" }, "geometry": { "type": "Point", "coordinates": [ -45.34632673699997, -9.75302185299995 ] } },
{ "type": "Feature", "properties": { "Nome": "SE Governador Mangabeira", "Concession": "CHESF - CHESF - Companhia Hidro Elétrica do São Francisco", "Ano_Opera": "-", "Tensao": "230\/69", "longitude": "-39.03398057", "latitude": "-12.60721385", "CD_MUN": "", "grau_defeito": "0.60966019", "risco": "0.39033981" }, "geometry": { "type": "Point", "coordinates": [ -39.03398057499993, -12.607213851999973 ] } },
{ "type": "Feature", "properties": { "Nome": "SE Governador Valadares 2", "Concession": "CEMIG - Companhia Energética de Minas Gerais", "Ano_Opera": "1989", "Tensao": "230\/138\/13,8", "longitude": "-41.98005788", "latitude": "-18.84958048", "CD_MUN": "", "grau_defeito": "0.58019942", "risco": "0.41980058" }, "geometry": { "type": "Point", "coordinates": [ -41.980057879999947, -18.849580480999975 ] } },
{ "type": "Feature", "properties": { "Nome": "SE Grajaú", "Concession": "FURNAS - Furnas Centrais Elétricas S.A.", "Ano_Opera": "1987", "Tensao": "500\/138", "longitude": "-43.26471006", "latitude": "-22.92774229", "CD_MUN": "", "grau_defeito": "0.5673529", "risco": "0.4326471" }, "geometry": { "type": "Point", "coordinates": [ -43.264710064999974, -22.92774228899998 ] } },
{ "type": "Feature", "properties": { "Nome": "SE Gralha Azul", "Concession": "COPEL-GT - COPEL GERAÇÃO E TRANSMISSÃO S.A", "Ano_Opera": "-", "Tensao": "230", "longitude": "-49.35476443", "latitude": "-25.58687460", "CD_MUN": "", "grau_defeito": "0.50645236", "risco": "0.49354764" }, "geometry": { "type": "Point", "coordinates": [ -49.354764431999968, -25.586874599999931 ] } },
{ "type": "Feature", "properties": { "Nome": "SE Gravataí 2", "Concession": "CEEE GT - Companhia Estadual de Geração e Transmissão de Energia Elétrica", "Ano_Opera": "-", "Tensao": "230\/69\/23", "longitude": "-51.06533348", "latitude": "-29.88384355", "CD_MUN": "", "grau_defeito": "0.48934667", "risco": "0.51065333" }, "geometry": { "type": "Point", "coordinates": [ -51.065333477999957, -29.883843550999984 ] } },
{ "type": "Feature", "properties": { "Nome": "SE Gravataí 3", "Concession": "ELETROSUL - ELETROSUL Centrais Elétricas S.A.", "Ano_Opera": "2007", "Tensao": "230\/69", "longitude": "-50.96270752", "latitude": "-29.88769531", "CD_MUN": "", "grau_defeito": "0.49037292", "risco": "0.50962708" }, "geometry": { "type": "Point", "coordinates": [ -50.962707519999981, -29.887695311999948 ] } },
{ "type": "Feature", "properties": { "Nome": "SE Guaiba 2", "Concession": "CEEE GT - Companhia Estadual de Geração e Transmissão de Energia Elétrica", "Ano_Opera": "-", "Tensao": "230\/69", "longitude": "-51.38140739", "latitude": "-30.13019146", "CD_MUN": "", "grau_defeito": "0.48618593", "risco": "0.51381407" }, "geometry": { "type": "Point", "coordinates": [ -51.38140739399995, -30.130191455999977 ] } },
{ "type": "Feature", "properties": { "Nome": "SE Guaíra", "Concession": "COPEL-GT - COPEL GERAÇÃO E TRANSMISSÃO S.A", "Ano_Opera": "1984", "Tensao": "230\/138\/34,5", "longitude": "-54.22606594", "latitude": "-24.10271025", "CD_MUN": "", "grau_defeito": "0.45773934", "risco": "0.54226066" }, "geometry": { "type": "Point", "coordinates": [ -54.226065939999955, -24.102710250999962 ] } },
{ "type": "Feature", "properties": { "Nome": "SE Guamá", "Concession": "ELETRONORTE - Centrais Elétricas do Norte do Brasil S\/A", "Ano_Opera": "-", "Tensao": "230\/69", "longitude": "-48.44559999", "latitude": "-1.45858697", "CD_MUN": "", "grau_defeito": "0.515544", "risco": "0.484456" }, "geometry": { "type": "Point", "coordinates": [ -48.445599987999969, -1.458586965999928 ] } },
{ "type": "Feature", "properties": { "Nome": "SE Guarulhos", "Concession": "FURNAS - Furnas Centrais Elétricas S.A.", "Ano_Opera": "1963", "Tensao": "345", "longitude": "-46.58539555", "latitude": "-23.44235809", "CD_MUN": "", "grau_defeito": "0.53414604", "risco": "0.46585396" }, "geometry": { "type": "Point", "coordinates": [ -46.585395546999962, -23.442358094999975 ] } },
{ "type": "Feature", "properties": { "Nome": "SE Guilman-Amorim", "Concession": "GUILMAN\/AMORI - Consórcio GUILMAN\/AMORIM", "Ano_Opera": "1997", "Tensao": "230\/13,8", "longitude": "-42.92361350", "latitude": "-19.67501729", "CD_MUN": "", "grau_defeito": "0.57076386", "risco": "0.42923614" }, "geometry": { "type": "Point", "coordinates": [ -42.923613504999935, -19.675017288999982 ] } },
{ "type": "Feature", "properties": { "Nome": "SE Gurupi", "Concession": "FURNAS - Furnas Centrais Elétricas S.A.", "Ano_Opera": "1999", "Tensao": "500", "longitude": "-49.01182668", "latitude": "-11.73586458", "CD_MUN": "", "grau_defeito": "0.50988173", "risco": "0.49011827" }, "geometry": { "type": "Point", "coordinates": [ -49.011826675999941, -11.73586458099993 ] } },
{ "type": "Feature", "properties": { "Nome": "SE Henry Borden", "Concession": "EMAE - Empresa Metropolitana de Águas e Energia S.A", "Ano_Opera": "1956", "Tensao": "230\/13,8", "longitude": "-46.45068400", "latitude": "-23.87768600", "CD_MUN": "", "grau_defeito": "0.53549316", "risco": "0.46450684" }, "geometry": { "type": "Point", "coordinates": [ -46.450684, -23.877685998999937 ] } },
{ "type": "Feature", "properties": { "Nome": "SE Ibicoara", "Concession": "TAESA - TRANSMISSORA ALIANÇA DE ENERGIA ELÉTRICA S A", "Ano_Opera": "2003", "Tensao": "500\/230\/138", "longitude": "-41.37390100", "latitude": "-13.43890400", "CD_MUN": "", "grau_defeito": "0.58626099", "risco": "0.41373901" }, "geometry": { "type": "Point", "coordinates": [ -41.373901, -13.438904 ] } },
{ "type": "Feature", "properties": { "Nome": "SE Ibiporã", "Concession": "COPEL-GT - COPEL GERAÇÃO E TRANSMISSÃO S.A", "Ano_Opera": "-", "Tensao": "230\/138\/34,5", "longitude": "-51.07697604", "latitude": "-23.29175565", "CD_MUN": "", "grau_defeito": "0.48923024", "risco": "0.51076976" }, "geometry": { "type": "Point", "coordinates": [ -51.076976042999945, -23.29175565099996 ] } },
{ "type": "Feature", "properties": { "Nome": "SE Ibiúna", "Concession": "FURNAS - Furnas Centrais Elétricas S.A.", "Ano_Opera": "1984", "Tensao": "600\/500\/345\/20", "longitude": "-47.10474800", "latitude": "-23.66702300", "CD_MUN": "", "grau_defeito": "0.52895252", "risco": "0.47104748" }, "geometry": { "type": "Point", "coordinates": [ -47.104748, -23.667022998999983 ] } },
{ "type": "Feature", "properties": { "Nome": "SE Icó", "Concession": "CHESF - CHESF - Companhia Hidro Elétrica do São Francisco", "Ano_Opera": "-", "Tensao": "230\/69", "longitude": "-38.88137300", "latitude": "-6.40915200", "CD_MUN": "", "grau_defeito": "0.61118627", "risco": "0.38881373" }, "geometry": { "type": "Point", "coordinates": [ -38.881373, -6.409152 ] } },
{ "type": "Feature", "properties": { "Nome": "SE Igaporã III", "Concession": "CHESF - CHESF - Companhia Hidro Elétrica do São Francisco", "Ano_Opera": "2015", "Tensao": "500\/230", "longitude": "-42.61269380", "latitude": "-13.98421936", "CD_MUN": "", "grau_defeito": "0.57387306", "risco": "0.42612694" }, "geometry": { "type": "Point", "coordinates": [ -42.612693800999978, -13.984219361999976 ] } },
{ "type": "Feature", "properties": { "Nome": "SE UHE Ilha Solteira", "Concession": "RPE - RIO PARANÁ ENERGIA", "Ano_Opera": "1973", "Tensao": "440\/138\/14,4\/13,8", "longitude": "-51.37037993", "latitude": "-20.38132593", "CD_MUN": "", "grau_defeito": "0.4862962", "risco": "0.5137038" }, "geometry": { "type": "Point", "coordinates": [ -51.370379925999941, -20.381325927999967 ] } },
{ "type": "Feature", "properties": { "Nome": "SE Imperatriz", "Concession": "CENTRAIS ELÉTRICAS DO NORTE DO BRASIL S\/A ELETRONORTE", "Ano_Opera": "-", "Tensao": "230\/500", "longitude": "-47.44402696", "latitude": "-5.49254467", "CD_MUN": "", "grau_defeito": "0.52555973", "risco": "0.47444027" }, "geometry": { "type": "Point", "coordinates": [ -47.444026962999942, -5.49254467399993 ] } },
{ "type": "Feature", "properties": { "Nome": "SE Integradora", "Concession": "ELETRONORTE - Centrais Elétricas do Norte do Brasil S\/A", "Ano_Opera": "2008", "Tensao": "230", "longitude": "-50.02190097", "latitude": "-6.43851664", "CD_MUN": "", "grau_defeito": "0.49978099", "risco": "0.50021901" }, "geometry": { "type": "Point", "coordinates": [ -50.021900966999965, -6.438516636999964 ] } },
{ "type": "Feature", "properties": { "Nome": "SE Interlagos", "Concession": "CTEEP - Companhia de Transmissão de Energia Elétrica Paulista", "Ano_Opera": "-", "Tensao": "345\/230", "longitude": "-46.68141935", "latitude": "-23.71008661", "CD_MUN": "", "grau_defeito": "0.53318581", "risco": "0.46681419" }, "geometry": { "type": "Point", "coordinates": [ -46.681419352999967, -23.710086606999937 ] } },
{ "type": "Feature", "properties": { "Nome": "SE Ipatinga 1", "Concession": "CEMIG - Companhia Energética de Minas Gerais", "Ano_Opera": "1971", "Tensao": "230\/13,8", "longitude": "-42.55767628", "latitude": "-19.43883997", "CD_MUN": "", "grau_defeito": "0.57442324", "risco": "0.42557676" }, "geometry": { "type": "Point", "coordinates": [ -42.557676275999938, -19.438839971999982 ] } },
{ "type": "Feature", "properties": { "Nome": "SE Irapé", "Concession": "TRANSLESTE - COMPANHIA TRANSLESTE DE TRANSMISSÃO", "Ano_Opera": "2005", "Tensao": "345\/230", "longitude": "-42.57143828", "latitude": "-16.72978823", "CD_MUN": "", "grau_defeito": "0.57428562", "risco": "0.42571438" }, "geometry": { "type": "Point", "coordinates": [ -42.571438283999953, -16.729788226999972 ] } },
{ "type": "Feature", "properties": { "Nome": "SE Irecê", "Concession": "CHESF - CHESF - Companhia Hidro Elétrica do São Francisco", "Ano_Opera": "-", "Tensao": "230\/138\/69\/13,8", "longitude": "-41.80795987", "latitude": "-11.30877887", "CD_MUN": "", "grau_defeito": "0.5819204", "risco": "0.4180796" }, "geometry": { "type": "Point", "coordinates": [ -41.807959867999955, -11.308778874999973 ] } },
{ "type": "Feature", "properties": { "Nome": "SE Itá", "Concession": "ELETROSUL - ELETROSUL Centrais Elétricas S.A.", "Ano_Opera": "-", "Tensao": "525", "longitude": "-52.40584444", "latitude": "-27.27305833", "CD_MUN": "", "grau_defeito": "0.47594156", "risco": "0.52405844" }, "geometry": { "type": "Point", "coordinates": [ -52.405844443999968, -27.273058332999938 ] } },
{ "type": "Feature", "properties": { "Nome": "SE Itabaiana", "Concession": "CHESF - CHESF - Companhia Hidro Elétrica do São Francisco", "Ano_Opera": "-", "Tensao": "230\/69", "longitude": "-37.45608170", "latitude": "-10.66218388", "CD_MUN": "", "grau_defeito": "0.62543918", "risco": "0.37456082" }, "geometry": { "type": "Point", "coordinates": [ -37.456081698999981, -10.662183883999944 ] } },
{ "type": "Feature", "properties": { "Nome": "SE Itaberá", "Concession": "FURNAS - Furnas Centrais Elétricas S.A.", "Ano_Opera": "1982", "Tensao": "750", "longitude": "-49.13202001", "latitude": "-23.95131071", "CD_MUN": "", "grau_defeito": "0.5086798", "risco": "0.4913202" }, "geometry": { "type": "Point", "coordinates": [ -49.132020010999952, -23.951310710999962 ] } },
{ "type": "Feature", "properties": { "Nome": "SE Itabira 2", "Concession": "CEMIG - Companhia Energética de Minas Gerais", "Ano_Opera": "-", "Tensao": "230\/69\/13,8", "longitude": "-43.19970266", "latitude": "-19.59522559", "CD_MUN": "", "grau_defeito": "0.56800297", "risco": "0.43199703" }, "geometry": { "type": "Point", "coordinates": [ -43.199702663999972, -19.595225588999938 ] } },
{ "type": "Feature", "properties": { "Nome": "SE Itabira 4", "Concession": "CEMIG - Companhia Energética de Minas Gerais", "Ano_Opera": "2013", "Tensao": "230", "longitude": "-43.28551224", "latitude": "-19.60262900", "CD_MUN": "", "grau_defeito": "0.56714488", "risco": "0.43285512" }, "geometry": { "type": "Point", "coordinates": [ -43.285512241999982, -19.602629003999937 ] } },
{ "type": "Feature", "properties": { "Nome": "SE Ouro Preto 2", "Concession": "CEMIG - Companhia Energética de Minas Gerais", "Ano_Opera": "1988", "Tensao": "500\/345\/138", "longitude": "-43.75830100", "latitude": "-20.29779100", "CD_MUN": "", "grau_defeito": "0.56241699", "risco": "0.43758301" }, "geometry": { "type": "Point", "coordinates": [ -43.758301, -20.297790998999972 ] } },
{ "type": "Feature", "properties": { "Nome": "SE Itabirito 2", "Concession": "MONTES CLAROS - LINHAS DE TRANSMISSAO DE MONTES CLAROS LTDA", "Ano_Opera": "2014", "Tensao": "500\/345", "longitude": "-43.78472600", "latitude": "-20.32815600", "CD_MUN": "", "grau_defeito": "0.56215274", "risco": "0.43784726" }, "geometry": { "type": "Point", "coordinates": [ -43.784726, -20.328156 ] } },
{ "type": "Feature", "properties": { "Nome": "SE Itacaiúnas", "Concession": "ATE III - ATE III TRANSMISSORA DE ENERGIA S.A.", "Ano_Opera": "2008", "Tensao": "500\/230", "longitude": "-49.14727671", "latitude": "-5.45626792", "CD_MUN": "", "grau_defeito": "0.50852723", "risco": "0.49147277" }, "geometry": { "type": "Point", "coordinates": [ -49.147276713999986, -5.456267923999974 ] } },
{ "type": "Feature", "properties": { "Nome": "SE Itajaí", "Concession": "ELETROSUL - ELETROSUL Centrais Elétricas S.A.", "Ano_Opera": "2002", "Tensao": "230\/138", "longitude": "-48.78150492", "latitude": "-26.97316206", "CD_MUN": "", "grau_defeito": "0.51218495", "risco": "0.48781505" }, "geometry": { "type": "Point", "coordinates": [ -48.781504918999985, -26.973162059999936 ] } },
{ "type": "Feature", "properties": { "Nome": "SE Itajubá 3", "Concession": "CEMIG - Companhia Energética de Minas Gerais", "Ano_Opera": "2002", "Tensao": "500\/138", "longitude": "-45.51578569", "latitude": "-22.46815018", "CD_MUN": "", "grau_defeito": "0.54484214", "risco": "0.45515786" }, "geometry": { "type": "Point", "coordinates": [ -45.515785691999952, -22.468150176999927 ] } },
{ "type": "Feature", "properties": { "Nome": "SE Itapaci", "Concession": "CELG - GT - CELG GERAÇÃO E TRANSMISSÃO S\/A", "Ano_Opera": "-", "Tensao": "230\/69", "longitude": "-49.52373375", "latitude": "-14.94428676", "CD_MUN": "", "grau_defeito": "0.50476266", "risco": "0.49523734" }, "geometry": { "type": "Point", "coordinates": [ -49.523733753999977, -14.94428675599994 ] } },
{ "type": "Feature", "properties": { "Nome": "SE Itapeti", "Concession": "CTEEP - Companhia de Transmissão de Energia Elétrica Paulista", "Ano_Opera": "-", "Tensao": "345\/230\/88\/13,8", "longitude": "-46.17655686", "latitude": "-23.54732483", "CD_MUN": "", "grau_defeito": "0.53823443", "risco": "0.46176557" }, "geometry": { "type": "Point", "coordinates": [ -46.176556863999963, -23.547324831999958 ] } },
{ "type": "Feature", "properties": { "Nome": "SE Itararé II", "Concession": "CTEEP - Companhia de Transmissão de Energia Elétrica Paulista", "Ano_Opera": "-", "Tensao": "230\/138", "longitude": "-49.31276398", "latitude": "-24.10246633", "CD_MUN": "", "grau_defeito": "0.50687236", "risco": "0.49312764" }, "geometry": { "type": "Point", "coordinates": [ -49.312763984999947, -24.102466331999949 ] } },
{ "type": "Feature", "properties": { "Nome": "SE Itatiba", "Concession": "TRANSENERGIA SP - Transenergia São Paulo S.A.", "Ano_Opera": "2012", "Tensao": "500\/138", "longitude": "-46.90500307", "latitude": "-22.95702278", "CD_MUN": "", "grau_defeito": "0.53094997", "risco": "0.46905003" }, "geometry": { "type": "Point", "coordinates": [ -46.905003068999974, -22.957022783999946 ] } },
{ "type": "Feature", "properties": { "Nome": "SE Itaúba", "Concession": "CEEE GT - Companhia Estadual de Geração e Transmissão de Energia Elétrica", "Ano_Opera": "1978", "Tensao": "230\/13,8", "longitude": "-53.23378624", "latitude": "-29.26047691", "CD_MUN": "", "grau_defeito": "0.46766214", "risco": "0.53233786" }, "geometry": { "type": "Point", "coordinates": [ -53.233786243999987, -29.26047690799993 ] } },
{ "type": "Feature", "properties": { "Nome": "SE Itiquira", "Concession": "ITIQUIRA - Itiquira Energética S\/A", "Ano_Opera": "2002", "Tensao": "230\/13,8", "longitude": "-54.87486094", "latitude": "-17.07958671", "CD_MUN": "", "grau_defeito": "0.45125139", "risco": "0.54874861" }, "geometry": { "type": "Point", "coordinates": [ -54.874860941999941, -17.079586712999969 ] } },
{ "type": "Feature", "properties": { "Nome": "SE UHE Itumbiara", "Concession": "FURNAS - Furnas Centrais Elétricas S.A.", "Ano_Opera": "1980", "Tensao": "500\/345\/230", "longitude": "-49.11413630", "latitude": "-18.40721994", "CD_MUN": "", "grau_defeito": "0.50885864", "risco": "0.49114136" }, "geometry": { "type": "Point", "coordinates": [ -49.114136302999952, -18.407219944999952 ] } },
{ "type": "Feature", "properties": { "Nome": "SE Itutinga", "Concession": "FURNAS - Furnas Centrais Elétricas S.A", "Ano_Opera": "1967", "Tensao": "345", "longitude": "-44.62914427", "latitude": "-21.29615293", "CD_MUN": "", "grau_defeito": "0.55370856", "risco": "0.44629144" }, "geometry": { "type": "Point", "coordinates": [ -44.629144268999937, -21.296152925999934 ] } },
{ "type": "Feature", "properties": { "Nome": "SE Ivaiporã", "Concession": "ELETROSUL - ELETROSUL Centrais Elétricas S.A.", "Ano_Opera": "-", "Tensao": "525", "longitude": "-51.67742708", "latitude": "-24.43101707", "CD_MUN": "", "grau_defeito": "0.48322573", "risco": "0.51677427" }, "geometry": { "type": "Point", "coordinates": [ -51.677427078999983, -24.43101706899995 ] } },
{ "type": "Feature", "properties": { "Nome": "SE Ivaiporã", "Concession": "FURNAS - Furnas Centrais Elétricas S.A.", "Ano_Opera": "1982", "Tensao": "750", "longitude": "-51.67408781", "latitude": "-24.42058690", "CD_MUN": "", "grau_defeito": "0.48325912", "risco": "0.51674088" }, "geometry": { "type": "Point", "coordinates": [ -51.674087808999957, -24.420586895999975 ] } },
{ "type": "Feature", "properties": { "Nome": "SE Ivinhema 2", "Concession": "BRILHANTE - Brilhante Transmissora de Energia Ltda", "Ano_Opera": "2011", "Tensao": "230\/138", "longitude": "-53.57488709", "latitude": "-22.41790537", "CD_MUN": "", "grau_defeito": "0.46425113", "risco": "0.53574887" }, "geometry": { "type": "Point", "coordinates": [ -53.574887088999958, -22.417905365999957 ] } },
{ "type": "Feature", "properties": { "Nome": "SE Jacaracanga", "Concession": "CHESF - CHESF - Companhia Hidro Elétrica do São Francisco", "Ano_Opera": "-", "Tensao": "230\/69", "longitude": "-38.48269123", "latitude": "-12.69696083", "CD_MUN": "", "grau_defeito": "0.61517309", "risco": "0.38482691" }, "geometry": { "type": "Point", "coordinates": [ -38.482691227999965, -12.696960829999966 ] } },
{ "type": "Feature", "properties": { "Nome": "SE Jacarepaguá", "Concession": "FURNAS - Furnas Centrais Elétricas S.A.", "Ano_Opera": "1967", "Tensao": "345\/138", "longitude": "-43.42125895", "latitude": "-22.92410224", "CD_MUN": "", "grau_defeito": "0.56578741", "risco": "0.43421259" }, "geometry": { "type": "Point", "coordinates": [ -43.42125895099997, -22.924102238999978 ] } },
{ "type": "Feature", "properties": { "Nome": "SE Jaguará", "Concession": "CEMIG GT - CEMIG GERAÇÃO E TRANSMISSÃO S.A", "Ano_Opera": "-", "Tensao": "500\/345", "longitude": "-47.43826803", "latitude": "-20.01284936", "CD_MUN": "", "grau_defeito": "0.52561732", "risco": "0.47438268" }, "geometry": { "type": "Point", "coordinates": [ -47.438268025999946, -20.012849363999976 ] } },
{ "type": "Feature", "properties": { "Nome": "SE Jaguariaíva", "Concession": "COPEL-GT - COPEL GERAÇÃO E TRANSMISSÃO S.A", "Ano_Opera": "1993", "Tensao": "230\/138\/69\/34,5", "longitude": "-49.69457105", "latitude": "-24.23384154", "CD_MUN": "", "grau_defeito": "0.50305429", "risco": "0.49694571" }, "geometry": { "type": "Point", "coordinates": [ -49.694571050999969, -24.233841535999943 ] } },
{ "type": "Feature", "properties": { "Nome": "SE Janaúba 3", "Concession": "MANTIQUEIRA TRANSMIS - MANTIQUEIRA TRANSMISSORA DE ENERGIA S.A.", "Ano_Opera": "2020", "Tensao": "500\/230", "longitude": "-43.32577268", "latitude": "-15.92344517", "CD_MUN": "", "grau_defeito": "0.56674227", "risco": "0.43325773" }, "geometry": { "type": "Point", "coordinates": [ -43.325772680999933, -15.923445165999965 ] } },
{ "type": "Feature", "properties": { "Nome": "SE Jandira", "Concession": "IESJ - Interligação Elétrica Serra do Japi S.A.", "Ano_Opera": "2012", "Tensao": "440\/88", "longitude": "-46.90660100", "latitude": "-23.56303700", "CD_MUN": "", "grau_defeito": "0.53093399", "risco": "0.46906601" }, "geometry": { "type": "Point", "coordinates": [ -46.906601, -23.563036998999962 ] } },
{ "type": "Feature", "properties": { "Nome": "SE Jardim", "Concession": "CHESF - CHESF - Companhia Hidro Elétrica do São Francisco", "Ano_Opera": "-", "Tensao": "500\/230\/69", "longitude": "-37.15034521", "latitude": "-10.88278080", "CD_MUN": "", "grau_defeito": "0.62849655", "risco": "0.37150345" }, "geometry": { "type": "Point", "coordinates": [ -37.150345213999969, -10.882780803999935 ] } },
{ "type": "Feature", "properties": { "Nome": "SE Jaru", "Concession": "ELETRONORTE - Centrais Elétricas do Norte do Brasil S\/A", "Ano_Opera": "-", "Tensao": "230\/69", "longitude": "-62.45444186", "latitude": "-10.42327359", "CD_MUN": "", "grau_defeito": "0.37545558", "risco": "0.62454442" }, "geometry": { "type": "Point", "coordinates": [ -62.454441864999978, -10.423273590999941 ] } },
{ "type": "Feature", "properties": { "Nome": "SE Jataí", "Concession": "TRANSENER RENOVAVEL - Transenergia Renovável S.A.", "Ano_Opera": "2012", "Tensao": "230\/138", "longitude": "-52.09103102", "latitude": "-17.78605461", "CD_MUN": "", "grau_defeito": "0.47908969", "risco": "0.52091031" }, "geometry": { "type": "Point", "coordinates": [ -52.091031015999931, -17.786054613999966 ] } },
{ "type": "Feature", "properties": { "Nome": "SE Jauru", "Concession": "ELETRONORTE - Centrais Elétricas do Norte do Brasil S\/A", "Ano_Opera": "2003", "Tensao": "500\/230\/138", "longitude": "-58.83109693", "latitude": "-15.38133648", "CD_MUN": "", "grau_defeito": "0.41168903", "risco": "0.58831097" }, "geometry": { "type": "Point", "coordinates": [ -58.831096933999959, -15.381336481999938 ] } },
{ "type": "Feature", "properties": { "Nome": "SE Jeceaba", "Concession": "CEMIG - Companhia Energética de Minas Gerais", "Ano_Opera": "2010", "Tensao": "345\/33", "longitude": "-43.97012114", "latitude": "-20.58341461", "CD_MUN": "", "grau_defeito": "0.56029879", "risco": "0.43970121" }, "geometry": { "type": "Point", "coordinates": [ -43.970121140999936, -20.583414606999952 ] } },
{ "type": "Feature", "properties": { "Nome": "SE Ji-Paraná", "Concession": "ELETRONORTE - Centrais Elétricas do Norte do Brasil S\/A", "Ano_Opera": "-", "Tensao": "230\/138\/69", "longitude": "-61.89441010", "latitude": "-10.86211644", "CD_MUN": "", "grau_defeito": "0.3810559", "risco": "0.6189441" }, "geometry": { "type": "Point", "coordinates": [ -61.894410102999984, -10.86211643799993 ] } },
{ "type": "Feature", "properties": { "Nome": "SE João Camara II", "Concession": "CHESF - CHESF - Companhia Hidro Elétrica do São Francisco", "Ano_Opera": "2014", "Tensao": "230", "longitude": "-35.87485436", "latitude": "-5.30244556", "CD_MUN": "", "grau_defeito": "0.64125146", "risco": "0.35874854" }, "geometry": { "type": "Point", "coordinates": [ -35.874854358999983, -5.302445558999977 ] } },
{ "type": "Feature", "properties": { "Nome": "SE João Camara III", "Concession": "ETN - EXTREMOZ TRANSMISSORA DO NORDESTE", "Ano_Opera": "2014", "Tensao": "500", "longitude": "-35.88619980", "latitude": "-5.38031869", "CD_MUN": "", "grau_defeito": "0.641138", "risco": "0.358862" }, "geometry": { "type": "Point", "coordinates": [ -35.886199795999971, -5.380318689999967 ] } },
{ "type": "Feature", "properties": { "Nome": "SE Joinville Norte", "Concession": "ELETROSUL - ELETROSUL Centrais Elétricas S.A.", "Ano_Opera": "2009", "Tensao": "230\/138", "longitude": "-48.90116618", "latitude": "-26.25183066", "CD_MUN": "", "grau_defeito": "0.51098834", "risco": "0.48901166" }, "geometry": { "type": "Point", "coordinates": [ -48.901166177999983, -26.25183065799996 ] } },
{ "type": "Feature", "properties": { "Nome": "SE Joinville", "Concession": "ELETROSUL - ELETROSUL Centrais Elétricas S.A.", "Ano_Opera": "-", "Tensao": "230\/138\/69", "longitude": "-48.88757420", "latitude": "-26.29152065", "CD_MUN": "", "grau_defeito": "0.51112426", "risco": "0.48887574" }, "geometry": { "type": "Point", "coordinates": [ -48.887574197999982, -26.29152064699997 ] } },
{ "type": "Feature", "properties": { "Nome": "SE Jorge Lacerda A", "Concession": "ELETROSUL - ELETROSUL Centrais Elétricas S.A.", "Ano_Opera": "1965", "Tensao": "230\/138\/69", "longitude": "-48.96993076", "latitude": "-28.45103525", "CD_MUN": "", "grau_defeito": "0.51030069", "risco": "0.48969931" }, "geometry": { "type": "Point", "coordinates": [ -48.96993075599994, -28.451035254999965 ] } },
{ "type": "Feature", "properties": { "Nome": "SE Jorge Lacerda B", "Concession": "ELETROSUL - ELETROSUL Centrais Elétricas S.A.", "Ano_Opera": "1979", "Tensao": "230", "longitude": "-48.97056823", "latitude": "-28.45604273", "CD_MUN": "", "grau_defeito": "0.51029432", "risco": "0.48970568" }, "geometry": { "type": "Point", "coordinates": [ -48.970568234999973, -28.456042729999979 ] } },
{ "type": "Feature", "properties": { "Nome": "SE Jorge Teixeira", "Concession": "AMAZONAS GT - AMAZONAS GERAÇÃO E TRANSMISSÃO DE ENERGIA SA", "Ano_Opera": "2014", "Tensao": "230\/138\/13,8", "longitude": "-59.89630127", "latitude": "-3.02069092", "CD_MUN": "", "grau_defeito": "0.40103699", "risco": "0.59896301" }, "geometry": { "type": "Point", "coordinates": [ -59.896301269999981, -3.020690917999957 ] } },
{ "type": "Feature", "properties": { "Nome": "SE Juazeiro II", "Concession": "CHESF - CHESF - Companhia Hidro Elétrica do São Francisco", "Ano_Opera": "-", "Tensao": "230\/69", "longitude": "-40.47660697", "latitude": "-9.48105512", "CD_MUN": "", "grau_defeito": "0.59523393", "risco": "0.40476607" }, "geometry": { "type": "Point", "coordinates": [ -40.476606966999952, -9.481055119999951 ] } },
{ "type": "Feature", "properties": { "Nome": "SE Juazeiro III", "Concession": "ODOYA - ODOYA TRANSMISSORA DE ENERGIA S A", "Ano_Opera": "2016", "Tensao": "500\/230", "longitude": "-40.51936608", "latitude": "-9.48667469", "CD_MUN": "", "grau_defeito": "0.59480634", "risco": "0.40519366" }, "geometry": { "type": "Point", "coordinates": [ -40.51936608099993, -9.486674686999947 ] } },
{ "type": "Feature", "properties": { "Nome": "SE Juiz de Fora 1", "Concession": "CEMIG - Companhia Energética de Minas Gerais", "Ano_Opera": "1966", "Tensao": "345\/138\/13,8", "longitude": "-43.40277268", "latitude": "-21.71111340", "CD_MUN": "", "grau_defeito": "0.56597227", "risco": "0.43402773" }, "geometry": { "type": "Point", "coordinates": [ -43.402772681999977, -21.711113401999967 ] } },
{ "type": "Feature", "properties": { "Nome": "SE Jupiá", "Concession": "RPE - RIO PARANÁ ENERGIA", "Ano_Opera": "1969", "Tensao": "440\/138", "longitude": "-51.63305800", "latitude": "-20.78310500", "CD_MUN": "", "grau_defeito": "0.48366942", "risco": "0.51633058" }, "geometry": { "type": "Point", "coordinates": [ -51.633058, -20.783104998999931 ] } },
{ "type": "Feature", "properties": { "Nome": "SE Jurumirim", "Concession": "DUKE ENERGY - Duke Energy Internacional - Geração Paranapanema", "Ano_Opera": "1962", "Tensao": "230\/138", "longitude": "-49.23030840", "latitude": "-23.20856086", "CD_MUN": "", "grau_defeito": "0.50769692", "risco": "0.49230308" }, "geometry": { "type": "Point", "coordinates": [ -49.230308397999977, -23.208560859999977 ] } },
{ "type": "Feature", "properties": { "Nome": "SE Jurupari", "Concession": "XINGU TRA - LINHAS DE XINGU TRANSMISSORA DE ENERGIA SA", "Ano_Opera": "2013", "Tensao": "500\/230", "longitude": "-52.76590000", "latitude": "-1.55240000", "CD_MUN": "", "grau_defeito": "0.472341", "risco": "0.527659" }, "geometry": { "type": "Point", "coordinates": [ -52.7659, -1.5524 ] } },
{ "type": "Feature", "properties": { "Nome": "SE Lages", "Concession": "STC - STC - Sistema de Transmissão Catarinense S.A.", "Ano_Opera": "2007", "Tensao": "230\/138", "longitude": "-50.33740375", "latitude": "-27.75630147", "CD_MUN": "", "grau_defeito": "0.49662596", "risco": "0.50337404" }, "geometry": { "type": "Point", "coordinates": [ -50.337403753999979, -27.756301467999947 ] } },
{ "type": "Feature", "properties": { "Nome": "SE Lagoa Vermelha 2", "Concession": "ETAU - EMPRESA DE TRANSMISSÃO DO ALTO DO URUGUAI S\/A", "Ano_Opera": "2005", "Tensao": "230\/138", "longitude": "-51.52300672", "latitude": "-28.18543726", "CD_MUN": "", "grau_defeito": "0.48476993", "risco": "0.51523007" }, "geometry": { "type": "Point", "coordinates": [ -51.523006717999976, -28.185437262999983 ] } },
{ "type": "Feature", "properties": { "Nome": "SE Lajeado", "Concession": "INVESTCO - Investco S.A", "Ano_Opera": "2001", "Tensao": "500\/230", "longitude": "-48.36686800", "latitude": "-9.74719800", "CD_MUN": "", "grau_defeito": "0.51633132", "risco": "0.48366868" }, "geometry": { "type": "Point", "coordinates": [ -48.366868, -9.747198 ] } },
{ "type": "Feature", "properties": { "Nome": "SE Lajeado Grande", "Concession": "ELETROSUL - ELETROSUL Centrais Elétricas S.A.", "Ano_Opera": "2003", "Tensao": "230\/138", "longitude": "-50.55684314", "latitude": "-28.99062877", "CD_MUN": "", "grau_defeito": "0.49443157", "risco": "0.50556843" }, "geometry": { "type": "Point", "coordinates": [ -50.556843137999977, -28.990628774999948 ] } },
{ "type": "Feature", "properties": { "Nome": "SE Lajeado 2", "Concession": "CEEE GT - Companhia Estadual de Geração e Transmissão de Energia Elétrica", "Ano_Opera": "-", "Tensao": "230\/69\/13,8", "longitude": "-51.98447215", "latitude": "-29.46531939", "CD_MUN": "", "grau_defeito": "0.48015528", "risco": "0.51984472" }, "geometry": { "type": "Point", "coordinates": [ -51.984472149999931, -29.465319392999959 ] } },
{ "type": "Feature", "properties": { "Nome": "SE Laranjal", "Concession": "MACAPA TRA - LINHAS DE MACAPÁ TRANSMISSORA DE ENERGIA SA", "Ano_Opera": "2014", "Tensao": "230\/69", "longitude": "-52.48226008", "latitude": "-0.81196887", "CD_MUN": "", "grau_defeito": "0.4751774", "risco": "0.5248226" }, "geometry": { "type": "Point", "coordinates": [ -52.482260082999971, -0.811968867999951 ] } },
{ "type": "Feature", "properties": { "Nome": "SE Lechuga", "Concession": "MANAUS TR - MANAUS TRANSMISSORA DE ENERGIA S.A", "Ano_Opera": "2013", "Tensao": "500\/230\/138", "longitude": "-60.01462762", "latitude": "-2.92023876", "CD_MUN": "", "grau_defeito": "0.39985372", "risco": "0.60014628" }, "geometry": { "type": "Point", "coordinates": [ -60.014627624999946, -2.920238764999965 ] } },
{ "type": "Feature", "properties": { "Nome": "SE Livramento 2", "Concession": "CEEE GT - Companhia Estadual de Geração e Transmissão de Energia Elétrica", "Ano_Opera": "-", "Tensao": "230\/69", "longitude": "-55.54278564", "latitude": "-30.86218262", "CD_MUN": "", "grau_defeito": "0.44457214", "risco": "0.55542786" }, "geometry": { "type": "Point", "coordinates": [ -55.542785644999981, -30.862182615999984 ] } },
{ "type": "Feature", "properties": { "Nome": "SE Londrina (ESUL)", "Concession": "ELETROSUL - ELETROSUL Centrais Elétricas S.A.", "Ano_Opera": "-", "Tensao": "525\/230", "longitude": "-51.14103089", "latitude": "-23.46318446", "CD_MUN": "", "grau_defeito": "0.48858969", "risco": "0.51141031" }, "geometry": { "type": "Point", "coordinates": [ -51.141030889999968, -23.463184463999937 ] } },
{ "type": "Feature", "properties": { "Nome": "SE Lucas do Rio Verde", "Concession": "ELETRONORTE - Centrais Elétricas do Norte do Brasil S\/A", "Ano_Opera": "2012", "Tensao": "230\/138\/13,8", "longitude": "-55.93013189", "latitude": "-13.01051913", "CD_MUN": "", "grau_defeito": "0.44069868", "risco": "0.55930132" }, "geometry": { "type": "Point", "coordinates": [ -55.930131893999942, -13.010519132999946 ] } },
{ "type": "Feature", "properties": { "Nome": "SE Luiz Gonzaga", "Concession": "CHESF - CHESF - Companhia Hidro Elétrica do São Francisco", "Ano_Opera": "1988", "Tensao": "500", "longitude": "-38.30513990", "latitude": "-9.14464673", "CD_MUN": "", "grau_defeito": "0.6169486", "risco": "0.3830514" }, "geometry": { "type": "Point", "coordinates": [ -38.305139901999951, -9.144646727999941 ] } },
{ "type": "Feature", "properties": { "Nome": "SE Luziânia", "Concession": "SMTE - Serra da Mesa Transmissora de Energia S\/A.", "Ano_Opera": "2008", "Tensao": "500\/138", "longitude": "-47.83192545", "latitude": "-16.34908633", "CD_MUN": "", "grau_defeito": "0.52168075", "risco": "0.47831925" }, "geometry": { "type": "Point", "coordinates": [ -47.83192545299994, -16.349086327999942 ] } },
{ "type": "Feature", "properties": { "Nome": "SE Macaé Merchant", "Concession": "FURNAS - Furnas Centrais Elétricas S.A.", "Ano_Opera": "2001", "Tensao": "345\/138", "longitude": "-41.87297084", "latitude": "-22.30534993", "CD_MUN": "", "grau_defeito": "0.58127029", "risco": "0.41872971" }, "geometry": { "type": "Point", "coordinates": [ -41.872970839999937, -22.305349933999935 ] } },
{ "type": "Feature", "properties": { "Nome": "SE Macapá", "Concession": "MACAPA TRA - LINHAS DE MACAPÁ TRANSMISSORA DE ENERGIA SA", "Ano_Opera": "2014", "Tensao": "230\/69", "longitude": "-51.12166667", "latitude": "0.09833333", "CD_MUN": "", "grau_defeito": "0.48878333", "risco": "0.51121667" }, "geometry": { "type": "Point", "coordinates": [ -51.121666666999943, 0.098333333000028 ] } },
{ "type": "Feature", "properties": { "Nome": "SE Maçambará", "Concession": "CEEE GT - Companhia Estadual de Geração e Transmissão de Energia Elétrica", "Ano_Opera": "-", "Tensao": "230\/69", "longitude": "-56.06652832", "latitude": "-29.15118408", "CD_MUN": "", "grau_defeito": "0.43933472", "risco": "0.56066528" }, "geometry": { "type": "Point", "coordinates": [ -56.066528319999975, -29.15118408099994 ] } },
{ "type": "Feature", "properties": { "Nome": "SE Macéio II", "Concession": "CHESF - CHESF - Companhia Hidro Elétrica do São Francisco", "Ano_Opera": "2019", "Tensao": "230\/69", "longitude": "-35.75023216", "latitude": "-9.52876608", "CD_MUN": "", "grau_defeito": "0.64249768", "risco": "0.35750232" }, "geometry": { "type": "Point", "coordinates": [ -35.750232156999971, -9.528766081999947 ] } },
{ "type": "Feature", "properties": { "Nome": "SE Machadinho", "Concession": "ELETROSUL - ELETROSUL Centrais Elétricas S.A.", "Ano_Opera": "2001", "Tensao": "500", "longitude": "-51.78964472", "latitude": "-27.52739494", "CD_MUN": "", "grau_defeito": "0.48210355", "risco": "0.51789645" }, "geometry": { "type": "Point", "coordinates": [ -51.789644719999956, -27.52739493699994 ] } },
{ "type": "Feature", "properties": { "Nome": "SE Manaus", "Concession": "AMAZONAS GT - AMAZONAS GERAÇÃO E TRANSMISSÃO DE ENERGIA SA", "Ano_Opera": "-", "Tensao": "230\/69", "longitude": "-59.99139404", "latitude": "-3.08148193", "CD_MUN": "", "grau_defeito": "0.40008606", "risco": "0.59991394" }, "geometry": { "type": "Point", "coordinates": [ -59.991394042999957, -3.081481932999964 ] } },
{ "type": "Feature", "properties": { "Nome": "SE Marabá", "Concession": "ELETRONORTE - Centrais Elétricas do Norte do Brasil S\/A", "Ano_Opera": "-", "Tensao": "500\/230\/69", "longitude": "-49.02405749", "latitude": "-5.19910660", "CD_MUN": "", "grau_defeito": "0.50975943", "risco": "0.49024057" }, "geometry": { "type": "Point", "coordinates": [ -49.024057489999961, -5.199106602999962 ] } },
{ "type": "Feature", "properties": { "Nome": "SE Marechal Rondon", "Concession": "MRTE - MARECHAL RONDON TRANSMISSORA DE ENERGIA SA", "Ano_Opera": "2016", "Tensao": "440\/138", "longitude": "-51.63876991", "latitude": "-20.79630312", "CD_MUN": "", "grau_defeito": "0.4836123", "risco": "0.5163877" }, "geometry": { "type": "Point", "coordinates": [ -51.638769914999955, -20.796303123999962 ] } },
{ "type": "Feature", "properties": { "Nome": "SE UHE Marimbondo", "Concession": "FURNAS - Furnas Centrais Elétricas S.A.", "Ano_Opera": "1975", "Tensao": "500\/345", "longitude": "-49.20349100", "latitude": "-20.30120800", "CD_MUN": "", "grau_defeito": "0.50796509", "risco": "0.49203491" }, "geometry": { "type": "Point", "coordinates": [ -49.203491, -20.301207998999928 ] } },